,기관주소,기관명,lon,lat
0,경기도 수원시 팔달구 고화로14번길 11 (매산로3가),(사)인구보건복지협회경기도지회가족보건의원,127.0083071512,37.2710953489
1,경기도 수원시 장안구 경수대로 857 (조원동),(사)한국건강관리협회건강증진의원,127.00844607199639,37.29202428442267
2,"경기도 수원시 팔달구 중부대로223번길 61 (우만동,2층, 4층)",(의)경기의료재단삼성한의원,127.0410044376518,37.27857090059091
3,경기도 수원시 팔달구 덕영대로 693 (화서동),(의)열린의료재단참사랑의원,126.99014122888894,37.284916606455944
4,"경기도 수원시 권선구 동수원로 232, 센터블스파 1~2층 (권선동)",(재)한국의학연구소KMI경기의원,127.03025669197318,37.2600269793682
5,경기도 수원시 영통구 중부대로 288 (매탄동),21세기외과의원,127.04703025990061,37.27347945008175
6,경기도 수원시 팔달구 권광로 181 (인계동),365mc의원,127.03227850861012,37.263958581340894
7,"경기도 수원시 영통구 봉영로 1569 (영통동, 뉴월드프라자 402,403호)",365내과의원,127.07100784354192,37.252069546399866
8,"경기도 수원시 영통구 영통로214번길 64, 6층 (영통동)",365다찬한의원,127.060842152875,37.2463534082746
9,"경기도 수원시 팔달구 권광로 163, 3층 (인계동, 보성빌딩)",365리셋의원,127.0317457378,37.2624377794
10,"경기도 수원시 장안구 만석로19번길 25-10 (천천동, 롯데마트)",365스마트의원,126.98220268126687,37.296427906511894
11,"경기도 수원시 영통구 중부대로 604, 1층 (영통동, 수원영통리슈빌스카이오피스텔)",365아이랑소아청소년과의원,127.0813942572,37.2672940997
12,"경기도 수원시 권선구 금곡로 202, e-SPACE CITY-1 201~202, 208~209, 213, 301~304, 308~311, 405~409호 (금곡동)",365열린메디칼의원,126.9526856282,37.2734829541
13,"경기도 수원시 권선구 매송고색로 755, 2층 (고색동, 중앙스포츠랜드)",365열린의원,126.98695613830813,37.2528542178785
14,"경기도 수원시 영통구 중부대로 259, 3층 301,302,303호 (원천동)",365예스한의원,127.044559088435,37.2749895718785
15,"대전광역시 서구 계백로 1141, 301호 (가수원동)",365최재혁가정의학과의원,127.35003714852779,36.30481191921987
16,"경기도 수원시 영통구 영통로 151, 2층 (망포동)",365힐링의원,127.05526877756244,37.24094464371118
17,"경기도 수원시 장안구 조원로 86, 2층 (조원동)",42좋은치과의원,127.01614713077,37.3008811701364
18,"경기도 수원시 장안구 경수대로 930, 4층 X9 YE호 (조원동)",H플란트치과의원,127.008809068617,37.3027673624559
19,경기도 수원시 장안구 경수대로 940 (조원동),JY피부과의원,127.00809068245619,37.3033304283698
20,"경기도 수원시 팔달구 중부대로223번길 4, 404호 (우만동, 블루하우스)",L3의원,127.04095670975528,37.276127174991615
21,경기도 수원시 장안구 이목로 24-9 (정자동),SK메디모아소아청소년과의원,126.98487080456698,37.309334733270006
22,"경기도 수원시 장안구 경수대로 940, 일호골든타워 314-2호 (조원동)",The(더)공감정신건강의학과의원,127.0080535047,37.303147113
23,"경기도 수원시 영통구 봉영로1517번길 23, 205호 (영통동, 벽적골9단지 주공아파트)",The나은치과의원,127.06660595206594,37.248591166456634
24,"경기도 수원시 팔달구 권광로 181 (인계동,4층)",YB안과의원,127.03219891320097,37.26379294940671
25,경기도 수원시 장안구 서부로 2123 (율전동),e-드림치과의원,126.97092358979033,37.29813405200765
26,"경기도 수원시 영통구 센트럴타운로 92, 4층 402호 (이의동, 광교대림프라자)",e튼튼치과의원,127.05114220774153,37.291779667115584
27,경기도 수원시 장안구 수성로261번길 6 (정자동),가경치과의원,127.0010253776555,37.290164758765854
28,경기도 수원시 장안구 팔달로 197 (영화동),가까운치과의원,127.00749374810601,37.28585407420153
29,경기도 수원시 권선구 삼천병마로 1599 (오목천동),가나수치과의원,126.96334066968617,37.24524893812317
30,대전광역시 서구 계백로 1161 (가수원동),가수원이비인후과의원,127.35233773079915,36.305349867994224
31,경기도 수원시 장안구 장안로 76 (정자동),가인치과의원,127.00317261410424,37.29112344508305
32,경기도 수원시 팔달구 중부대로 93 (지동),가톨릭대학교성빈센트병원,127.02744945028702,37.27792234538125
33,"경기도 수원시 영통구 봉영로 1606 (영통동, 미네시티309호)",가톨릭정형외과의원,127.07449032662569,37.253869507589925
34,"경기도 수원시 팔달구 효원로 269 (인계동,에스팝타워403호)",감동비뇨의학과의원,127.0312180694552,37.262254107026195
35,"경기도 수원시 팔달구 동말로 81 (화서동,2층)",강남신경과의원,127.0031391851349,37.278963484251925
36,"경기도 수원시 영통구 중부대로 252, 2층 (매탄동)",강남아산내과의원,127.04321770816769,37.27461621443199
37,"경기도 수원시 권선구 금곡로 205, 해피라움 308~309, 404~405호 (금곡동)",강남에스의원,126.95296021311677,37.274326437527606
38,경기도 수원시 팔달구 중부대로 96 (인계동),강남여성병원,127.02742789516688,37.27668608621736
39,"경기도 수원시 권선구 매송고색로711번길 2, 302호 (고색동)",강남웰치과의원,126.98226285770626,37.25146598652796
40,"경기도 수원시 영통구 영통로200번길 42, 1층.2층 (망포동)",강산한의원,127.05892470796479,37.24423051324389
41,경기도 수원시 권선구 정조로 576 (세류동),강양욱내과의원,127.0132841275,37.2602643713
42,경기도 수원시 장안구 창룡대로 185 (연무동),강영찬가정의학과의원,127.03039260606349,37.29252193705986
43,"경기도 수원시 영통구 봉영로 1612, 419호호 (영통동, 보보스프라자)",강지윤정신건강의학과의원,127.07501855163,37.25454764638207
44,경기도 수원시 권선구 세권로 190 (권선동),강한마디한의원,127.024934746746,37.2553328840964
45,경기도 수원시 팔달구 중부대로 40 (인계동),강한의원,127.02115838770938,37.275162744484824
46,경기도 수원시 팔달구 권광로 173 (인계동),강한피부과의원,127.03206333616626,37.26306134391718
47,경기도 수원시 팔달구 권광로 195 (인계동),갤러리아치과의원,127.0326839743,37.2649449442455
48,"경기도 수원시 팔달구 인계로 53 (인계동, 3층)",갤러리치과의원,127.02374388632476,37.26951823926814
49,"경기도 수원시 장안구 수성로261번길 73, 1층 (정자동)",거북이한의원,126.99873371675136,37.292748883795944
50,"경기도 수원시 장안구 창룡대로 197, 2층 (연무동)",건강한김치과의원,127.031781007,37.2927055077
51,경기도 수원시 장안구 창훈로60번길 24 (연무동),경기대한의원,127.03004741884469,37.2982597815131
52,경기도 수원시 장안구 수성로245번길 69 (정자동),경기도의료원수원병원,126.99638776108885,37.29188165276277
53,경기도 수원시 장안구 팔달로 211 (영화동),경기정신건강의학과의원,127.00894375708869,37.28651208250109
54,"경기도 수원시 장안구 정조로 942, 4층 (영화동)",경성플란트치과의원,127.0124776538,37.2916783294
55,"경기도 수원시 권선구 경수대로 261, 201호 (세류동)",경인한의원,127.01791909601758,37.25045072574484
56,"경기도 수원시 팔달구 정조로801번길 3 (팔달로2가,5외 2필지 삼광빌딩 2층(201호))",경진한의원,127.01644622253247,37.279459558387956
57,"경기도 수원시 영통구 광교로 146, 4층 (이의동, 안효빌딩)",경희365늘한의원,127.048535327032,37.2929529247892
58,"경기도 수원시 영통구 효원로 363, 303상가동 B 208호, 209호 (매탄동, 매탄 위브 하늘채)",경희가족한의원,127.04166901626262,37.2645433813459
59,"경기도 수원시 권선구 금곡로102번길 15, 비즈웍스 401~405호 (금곡동)",경희강추한의원,126.941851927412,37.2735010149489
60,경기도 수원시 장안구 대평로 74 (정자동),경희금강한의원,126.99342235012096,37.29481769567331
61,경기도 수원시 권선구 금호로 42 (호매실동),경희금호한의원,126.9564698149822,37.268873800165466
62,경기도 수원시 영통구 대학1로64번길 49 (이의동),경희남정우한의원,127.04419021202163,37.298792537149275
63,"경기도 수원시 권선구 동수원로242번길 6, 201호 (권선동)",경희늘품한의원,127.035002586497,37.2509430636025
64,"경기도 수원시 영통구 에듀타운로 23, 201호 (이의동, 광교프라자)",경희닥터최한의원,127.05202607506241,37.28478362003309
65,"경기도 수원시 영통구 태장로 83, 엘지프라자 203호 (망포동)",경희두드림한의원수원점,127.055326307235,37.2393195809172
66,경기도 수원시 영통구 매영로 52 (매탄동),경희마루치과의원,127.04825990874138,37.268779429276634
67,"경기도 수원시 영통구 대학로 109, 303호 (이의동, 골드클래스5)",경희바른한의원,127.0471627189,37.3050950399
68,경기도 수원시 권선구 정조로 564 (세류동),경희백제한의원,127.0128105018964,37.259327338944544
69,"경기도 수원시 권선구 세지로 68, 1층 (권선동)",경희부부한의원,127.01748806991208,37.25794632558772
70,"경기도 수원시 영통구 중부대로448번길 97, 204호 (원천동, 삼성테크노파크)",경희삼성한의원,127.05935652149421,37.26654356639151
71,경기도 수원시 장안구 파장로68번길 30 (파장동),경희소나무한의원,126.9928585927972,37.3072227393431
72,"경기도 수원시 영통구 매영로 84, 120호 (매탄동, 한국2차아파트상가)",경희솔한의원,127.04935089768617,37.26822035216965
73,"경기도 수원시 영통구 봉영로 1612 (영통동,보보스프라자305호)",경희수한의원,127.07489796597378,37.25459459042028
74,"경기도 수원시 팔달구 매산로 37, 3층 일부호 (매산로2가, 코스모수원빌딩)",경희숨편한한의원,127.0054251701,37.2685257463
75,"경기도 수원시 영통구 덕영대로 1410, 104,105,106호 (망포동, 영통아이파크캐슬1단지)",경희신의한의원,127.043698544489,37.2417815940293
76,"경기도 수원시 권선구 금곡로 206, 203-1, 204-1호 (금곡동)",경희약손한의원,126.9543359446,37.2740494557
77,경기도 수원시 장안구 정조로 954 (영화동),경희열린한의원,127.01174825209844,37.292604308678406
78,"경기도 수원시 영통구 봉영로 1623 (영통동,드림피아 빌딩 412,413호)",경희예당한의원,127.07473733381165,37.25593527286358
79,"경기도 수원시 영통구 영통로 118 (망포동, 델타빌딩)",경희온담한의원,127.05709008519872,37.23839265915517
80,경기도 수원시 장안구 장안로 312 (파장동),경희운송한의원,126.98878844745084,37.30926229990977
81,"경기도 수원시 팔달구 수원천로255번길 6, 라동 2층 12호 (영동)",경희유준상한의원,127.0186512472243,37.277163427813676
82,"경기도 수원시 권선구 호매실로104번길 24-61, 금호프라자1동 401,402호 (호매실동)",경희윤한의원,126.9626328996,37.2588319681
83,"경기도 수원시 영통구 광교중앙로 254, 4층 401호, 402호, 403호 (하동, 드림타워3)",경희인다움한의원,127.067740416354,37.2925337897192
84,"경기도 수원시 영통구 도청로89번길 43, 302호 (이의동, 애듀프라자)",경희자연한의원,127.04713574974247,37.28912879132015
85,"경기도 수원시 팔달구 중부대로 35, 1층 (지동)",경희척척의원,127.02072848246646,37.275447654502784
86,"경기도 수원시 영통구 영통로154번길 60, 105호 (망포동)",경희청운한의원,127.059049389308,37.2412885500588
87,경기도 수원시 팔달구 권광로 211,경희한의원,127.03325065210718,37.26630115332573
88,"경기도 수원시 영통구 청명남로 21, 3층 301호 (영통동, 아셈프라자)",경희해한의원,127.07446146823389,37.25203500086562
89,경기도 수원시 장안구 서부로 2139 (율전동),경희허브한의원,126.97163731611282,37.29949926881403
90,"경기도 수원시 권선구 세지로 98-1, 2층 (권선동)",경희현대한의원,127.018730555555550,37.260494444444447
91,경기도 수원시 장안구 만석로19번길 25-3 (천천동),경희화인한의원,126.98330034773898,37.29631199197202
92,"경기도 수원시 팔달구 권광로 208, 3층 (인계동)",경희회오리한의원,127.031948954981,37.26309367019324
93,경기도 수원시 장안구 송원로 81 (조원동),고구려한의원,127.0096607241455,37.30222702214617
94,"경기도 수원시 영통구 대학로 109, 302호 (이의동, 골드클래스5)",고려웰가정의학과의원,127.047149167551,37.30506981633711
95,경기도 수원시 팔달구 동말로 84 (화서동),고려의원,127.0032129309511,37.27859910104877
96,"경기도 수원시 팔달구 세지로 148 (인계동,2층)",고려정성의원,127.02099609372288,37.26466034171132
97,"경기도 수원시 권선구 매송고색로 716, 2층 (고색동)",고색치과의원,126.98279945060075,37.251116474194376
98,경기도 수원시 권선구 매송고색로676번길 3 (고색동),고색한의원,126.97873747359396,37.2499480611707
99,"경기도 수원시 팔달구 효원로 257 (인계동, 홈플러스 동수원점)",고운결한의원,127.03013152141492,37.26275536808955
100,"경기도 수원시 영통구 봉영로 1590 (영통동, 밀레니엄프라자 303호)",고운의원,127.0734477377373,37.252767268050945
101,경기도 수원시 영통구 인계로 239 (매탄동),고운이치과의원,127.04486173595305,37.26462154646493
102,경기도 수원시 팔달구 일월로22번길 15 (화서동),고은맘소아청소년과의원,126.98058742035585,37.28587760539795
103,"경기도 수원시 영통구 봉영로 1612, 701,702호 (영통동, 보보스프라자)",고은미인의원,127.07499141331259,37.25448190084696
104,경기도 수원시 장안구 율전로101번길 11 (율전동),고은이치과의원,126.96856548172272,37.2983379274178
105,"경기도 수원시 권선구 정조로 523, 3층 (세류동)",고은치과의원,127.01104242333423,37.25596482405619
106,경기도 수원시 팔달구 동말로78번길 3,고치과의원,127.00277092532626,37.278627939634774
107,"경기도 수원시 권선구 권광로27번길 62, 2층 (권선동, 삼천리아파트상가)",곡선연세가정의원,127.0245768105,37.2513890904
108,"대전광역시 서구 계백로 1135, MK클리닉 404호 (가수원동)",공감더하기정신건강의학과의원,127.34949806665398,36.3047666348356
109,"경기도 수원시 권선구 금곡로 205, 해피라움 310~311호 (금곡동)",공감백치과의원,126.952960325252,37.2743274287064
110,"경기도 수원시 팔달구 중부대로223번길 9, 2층 일부호 (우만동)",공감치과의원,127.0405284152,37.2764444886
111,경기도 수원시 권선구 정조로 409  (세류동),공군제10전투비행단항공의무대대,127.016158824414,37.2664278637356
112,"경기도 수원시 권선구 세권로212번길 3, 3층 (권선동)",곽동곤치과의원,127.02742035698996,37.254686421555746
113,"경기도 수원시 영통구 광교중앙로 170, 광교 효성해링턴 타워 313호,314호 (하동)",광교365메디컬의원,127.06070277716802,37.28812414380889
114,"경기도 수원시 영통구 광교호수공원로 277, 1층 1호 (원천동, 광교중흥에스클래스)",광교경희올바른한의원,127.056777997528,37.2839417579058
115,"경기도 수원시 영통구 센트럴타운로 106, 407호 (이의동, 센트럴프라자)",광교경희한의원,127.05018728208745,37.29249382732042
116,"경기도 수원시 영통구 도청로18번길 26, 힐스테이트광교중앙역 3층 338호~341호 (이의동)",광교굿슬립의원,127.056868624932,37.2876402080675
117,"경기도 수원시 영통구 센트럴타운로 15, 301,302호 (이의동, 아이플렉스)",광교내과의원,127.05737382784889,37.28821951217936
118,"경기도 수원시 영통구 센트럴타운로 98, 5층 1호 (이의동)",광교더바른한의원,127.05069229002433,37.292133206297066
119,경기도 수원시 영통구 광교마을로 156 (하동),광교문치과의원,127.08339667034733,37.29546332863858
120,경기도 수원시 영통구 도청로17번길 40 (이의동),광교본치과의원,127.05290238546482,37.28501412051634
121,"경기도 수원시 영통구 법조로 25, 광교 SK VIEW Lake 3층 301호 (하동)",광교삼성내과의원,127.060178440172,37.2874808899042
122,"경기도 수원시 영통구 광교중앙로 170, 광교 효성해링턴 타워 325,326,327호 (하동)",광교삼성치과의원,127.060702664758,37.2881245943755
123,"경기도 수원시 영통구 도청로17번길 10, 305호 (이의동, 성희프라자)",광교삼성화이트치과의원,127.05406248896253,37.28626063905757
124,"경기도 수원시 영통구 광교중앙로 250, 광교 더죤프라자 203호 (하동)",광교상쾌한이비인후과의원,127.0674908719,37.2923193051
125,"경기도 수원시 영통구 도청로89번길 23, 203호,204호 (이의동)",광교서울한의원,127.047840336723,37.2896736099132
126,"경기도 수원시 영통구 센트럴타운로 106, 312호 (이의동, 센트럴프라자)",광교센트럴가정의학과의원,127.05001606874967,37.29281826863206
127,"경기도 수원시 영통구 법조로 25, 광교 SK VIEW Lake 239호 (하동)",광교센트럴치과의원,127.04778568918363,37.28973403194897
128,"경기도 수원시 영통구 광교호수공원로 277, 판매시설동 2층 12~14호 (원천동, 광교중흥에스클래스)",광교스카이치과의원,127.056777997528,37.2839417579058
129,"경기도 수원시 영통구 센트럴타운로 98, 3층 301호 (이의동, 경현빌딩)",광교연세안과의원,127.05065075299488,37.292158314321725
130,"경기도 수원시 영통구 센트럴타운로 106, 402호 (이의동)",광교연세정신건강의학과의원,127.0501594273,37.2927387919
131,"경기도 수원시 영통구 센트럴타운로 106, 4층 405호 (이의동, 센트럴프라자)",광교연세피부과의원,127.0501594273,37.2927387919
132,"경기도 수원시 영통구 센트럴타운로 98, 3층 (이의동)",광교우리내과의원,127.05065075299488,37.292158314321725
133,"경기도 수원시 영통구 도청로89번길 30, 2층 (이의동)",광교윌내과의원,127.04705852933841,37.28994324363059
134,"경기도 수원시 영통구 센트럴타운로 106, 센트럴프라자 206,207호 (이의동)",광교은산부인과의원,127.050157396526,37.2927376213583
135,"경기도 수원시 영통구 센트럴타운로 106, 308,309호 (이의동)",광교이안소아청소년과의원,127.05015942729999,37.29273879189999
136,"경기도 수원시 영통구 광교중앙로248번길 7-2, 원희캐슬 광교 B동 202호, 207호, 208호 (하동)",광교임의원,127.066670743351,37.2910333582533
137,"경기도 수원시 영통구 대학로 56, 3층 1호 (이의동, 리치프라자1)",광교탑치과의원,127.04519298469064,37.300828501287704
138,"경기도 수원시 영통구 도청로17번길 10, 2층층 201호.202호 (이의동, 성희프라자)",광교푸른내과의원,127.0539936768577,37.286112672146245
139,"경기도 수원시 영통구 도청로89번길 43, 301호 (이의동, 에듀프라자)",광교플란트치과의원,127.04721245454812,37.28916119885305
140,"경기도 수원시 영통구 창룡대로256번길 41, 광교테크노주차타워 2층 (이의동)",광교하이메디의원,127.038587068971,37.2959921812999
141,"경기도 수원시 영통구 법조로 25, 광교 SK VIEW Lake A동 4층 401호 (하동)",광교호수소아치과의원,127.060178440172,37.2874808899042
142,"경기도 수원시 영통구 광교중앙로 145, 광교엘포트아이파크 206호 (이의동)",광교호수정신건강의학과의원,127.057781422092,37.2870876096225
143,"경기도 수원시 영통구 도청로89번길 31, 401호 (이의동, G타워 )",광교호치과의원,127.04757249029119,37.28948170663918
144,경기도 수원시 권선구 여기산로 54 (서둔동),광동한의원,126.9808222222222,37.283280555555564
145,"경기도 수원시 권선구 세권로195번길 13, 203호 (권선동, 권선종합상가)",광제한의원,127.02535111509661,37.255688808793415
146,경기도 수원시 장안구 만석로19번길 11-3 (천천동),광희한의원,126.983605555555556,37.295619444444448
147,"경기도 수원시 장안구 대평로 80, 407호 (정자동)",교동한의원,126.99369002697239,37.29533641761326
148,"경기도 수원시 팔달구 향교로 161, 우림빌딩 5층 (중동)",구광모항외과의원,127.01614768177848,37.27501930471801
149,경기도 수원시 장안구 만석로19번길 11-7 (천천동),구암허준한의원,126.98345846968476,37.29536773653982
150,"경기도 수원시 팔달구 중부대로 94, 성웅빌딩 (인계동)",구완서내과의원,127.02683250321321,37.276531237364885
151,경기도 수원시 팔달구 권광로276번길 4 (인계동),굿닥터소아과의원,127.03610166379886,37.271645163908055
152,"경기도 수원시 팔달구 매산로 48, 성진빌딩 3~4층 (매산로2가)",굿데이치과의원,127.006593397867,37.268408461468
153,"경기도 수원시 권선구 일월천로16번길 39, 104호 (구운동, LD코오롱상가)",굿라이프연세의원,126.97547348247131,37.28399869682365
154,경기도 수원시 장안구 경수대로1073번길 3 (파장동),굿모닝내과의원,126.9949148794373,37.30877333268741
155,경기도 수원시 장안구 서부로 2125 (율전동),굿모닝이비인후과의원,126.97105578133193,37.29838184378496
156,"경기도 수원시 팔달구 동말로 79 (화서동,2층)",굿모닝치과의원,127.00286856476964,37.27893826200205
157,경기도 수원시 권선구 금곡로 5-42 (금곡동),굿모닝치과의원,126.93842595012666,37.269608013301436
158,"경기도 용인시 기흥구 중부대로788번길 22, 210호 (상하동, 수원동마을쌍용아파트단지내상가)",굿모닝치과의원,127.14048468431338,37.25750903688236
159,"경기도 수원시 팔달구 중부대로 229, 302~303호 (우만동)",굿모닝플러스치과의원,127.04176356145089,37.27272834520532
160,경기도 수원시 팔달구 권광로285번길 7 (인계동),굿스마일치과의원,127.03579538279133,37.27251387346925
161,"경기도 수원시 영통구 매영로310번길 87, 206호 (영통동, 동보신명@상가)",굿윌치과의원,127.063991666666666,37.250630555555553
162,경기도 수원시 영통구 중부대로246번길 48-2 (매탄동),권내과의원,127.0416901733156,37.273059777127564
163,경기도 수원시 권선구 덕영대로1201번길 34 (권선동),권선삼성내과의원,127.0229263861643,37.250571273328944
164,"경기도 수원시 권선구 권광로 68, 4층 (권선동, 교연빌딩)",권선연세내과의원,127.02908648824036,37.2539866789641
165,"경기도 수원시 권선구 동수원로242번길 6, 304호 (권선동, 나눔프라자)",권선연합치과의원,127.03496650552185,37.250954237553174
166,경기도 수원시 권선구 세권로 186 (권선동),권선한의원,127.02448533297658,37.25544750220275
167,"경기도 수원시 팔달구 정조로 641, 204호 (매교동, 결혼회관 별관)",권영애치과의원,127.01563006487171,37.2658253179517
168,경기도 수원시 영통구 인계로 216 (매탄동),권치과의원,127.04083052141041,37.265041034062456
169,경기도 수원시 팔달구 권광로 354 (우만동),권혁호내과의원,127.03808052835028,37.278661846835625
170,경기도 수원시 팔달구 중부대로 190 (인계동),권혜영신경과의원,127.03680316110294,37.27670879601666
171,"경기도 수원시 영통구 중부대로271번길 5, 201호 (원천동, 수성빌딩)",규치과의원,127.0453388888889,37.27451944444444
172,"경기도 수원시 장안구 이목로 24-3, 303호 (정자동, 스카이프라자)",그랜드치과의원,126.98475793493811,37.30966269560704
173,"경기도 수원시 영통구 광교중앙로248번길 7-2, 원희캐슬 광교 B동 203호 (하동)",그레이스치과의원,127.06666012033413,37.29151965437221
174,경기도 수원시 권선구 금곡로 23 (금곡동),금곡한의원,126.9382452625311,37.269964726375086
175,경기도 수원시 영통구 영통로290번길 26 (영통동),금하치과의원,127.06227098998431,37.25132181054605
176,"경기도 수원시 장안구 송원로 20, 301,302호 (송죽동, 수원 아너스빌 위즈)",기분좋은365의원,127.006568042927,37.2970945810561
177,"경기도 수원시 장안구 만석로19번길 11-3, 209호 (천천동)",기쁜마음정신건강의학과의원,126.983686064382,37.29559989946
178,경기도 수원시 권선구 곡선로 42 (곡반정동),기찬경희한의원,127.02915731682481,37.23887794199266
179,"경기도 수원시 영통구 영통로 195, 601호 (망포동, 골든스퀘어)",기찬마취통증의학과의원,127.05579934463476,37.24518291175783
180,"경기도 수원시 팔달구 중부대로 213, 신원빌딩 2~4층 (우만동)",기찬마취통증의학과의원,127.039459970012,37.2764726916577
181,경기도 수원시 팔달구 권광로 159 (인계동),길맨남성의원,127.03160135653834,37.26219272112078
182,경기도 수원시 장안구 파장로 37 (파장동),김경신소아청소년과의원,126.99640402704091,37.30512961164082
183,경기도 수원시 권선구 권중로 110 (권선동),김경욱치과의원,127.02938863251042,37.249020254191244
184,"경기도 수원시 영통구 영통로 136, 403호 (망포동, 센트럴타워)",김경희산부인과의원,127.05624347636916,37.239596841344884
185,"경기도 수원시 영통구 효원로 400, 2층 201호,202호 (매탄동)",김기록치과의원,127.045383858,37.2580614781
186,"경기도 수원시 영통구 봉영로 1767, 111호 (영통동, 한솔프라자)",김내과의원,127.08164173781043,37.26678574187295
187,경기도 수원시 장안구 파장로 89 (정자동),김도관외과의원,126.9911384386,37.3069854682
188,"경기도 수원시 권선구 매송고색로 526, 3층 301호 (오목천동)",김도환행복한치과의원,126.96353911755085,37.245676401591844
189,"경기도 수원시 팔달구 동말로 83, (화서동)",김동윤부부치과의원,127.00336021066127,37.27895625684357
190,"경기도 수원시 장안구 만석로19번길 11-3, 601호 (천천동)",김라미유외과의원,126.983686064382,37.29559989946
191,"경기도 수원시 장안구 경수대로 940 (조원동, 402호)",김명원마취통증의학과의원,127.00808961732699,37.30313268143018
192,"경기도 수원시 영통구 중부대로246번길 52, 2층 1호 (매탄동)",김민우한의원,127.0415817973,37.272811128
193,"경기도 수원시 영통구 효원로 363, 310호 (매탄동, 두산위브하늘채B상가)",김민희의원,127.04171865828121,37.26461544729501
194,"대전광역시 서구 계백로 1130, 김봉진정형외과 (가수원동)",김봉천정형외과의원,127.34907550795555,36.303845419783165
195,경기도 수원시 장안구 서부로 2117 (율전동),김비뇨기과의원,126.97064407674384,37.297676243579694
196,"경기도 수원시 장안구 장안로 232 (정자동, 동신아파트(동신1차상가))",김선호한의원,126.99440658622485,37.30247508175098
197,"경기도 수원시 영통구 반달로7번길 6 (영통동, 센타프라자 304호)",김성민내과의원,127.07407851565767,37.25230914488519
198,경기도 수원시 장안구 서부로2181번길 55 (율전동),김성철치과의원,126.9698176398773,37.3031605787742
199,"경기도 수원시 영통구 효원로 397, 702호 (매탄동, 중앙프라자)",김수장한의원,127.04516801634341,37.25905631198754
200,"경기도 수원시 팔달구 중부대로 46, 2층 (인계동)",김씨일가한의원,127.02164998533291,37.27516626600868
201,경기도 수원시 영통구 봉영로 1569 (영통동),김앤박이비인후과의원,127.07101830871453,37.25192970409662
202,경기도 수원시 영통구 동수원로 514 (매탄동),김영광치과의원,127.04696803358766,37.27277691915771
203,경기도 수원시 영통구 영통로 509 (영통동),김영국소아청소년과의원,127.07749475332002,37.26416468221393
204,"경기도 수원시 권선구 경수대로309번길 20, 1층 (세류동)",김영삼한의원,127.01974444344488,37.25497975327044
205,"경기도 수원시 팔달구 덕영대로 695 (화서동,201호,202호,203호)",김영순내과의원,126.9903156185664,37.28471535265503
206,경기도 수원시 장안구 경수대로973번길 13-3 (송죽동),김영신의원,127.00448130506817,37.303759463824115
207,경기도 수원시 팔달구 세지로 393 (우만동),김영훈치과의원,127.028088888888888,37.285047222222225
208,"경기도 수원시 팔달구 중부대로 116-1, 상기빌딩 2층 (인계동)",김오곤한의원,127.01296428244181,37.27962573651612
209,경기도 수원시 팔달구 중부대로 83-1 (지동),김외과의원,127.02592454579545,37.27665042050076
210,"경기도 수원시 팔달구 권광로 197 (인계동, 남현빌딩 403호 )",김원정신건강의학과의원,127.0327750970182,37.26523071630219
211,경기도 수원시 장안구 창훈로60번길 25 (연무동),김의치과의원,127.029666666666671,37.298324999999998
212,"경기도 수원시 팔달구 팔달문로 77, (지동)",김이호치과의원,127.024808333333340,37.280380555555553
213,경기도 수원시 장안구 장안로 270-12 (정자동),김인호내과의원,126.99177922964372,37.306365589440716
214,경기도 수원시 영통구 동수원로 520 (매탄동),김정오치과의원,127.04761759579965,37.27299652018384
215,경기도 수원시 팔달구 정조로 784-1 (팔달로2가),김정태이비인후과의원,127.01692704188612,37.27806127571749
216,"경기도 수원시 팔달구 권광로 197 (인계동,남현프라자 2층)",김지훈피부과의원,127.0327976246,37.2652307233
217,경기도 수원시 권선구 효원로 228 (권선동),김찬병원,127.02639042020465,37.2625544880269
218,경기도 수원시 영통구 봉영로 1606 (영통동),김춘동이비인후과의원,127.07448585193231,37.25388391364418
219,경기도 수원시 장안구 수성로349번길 4 (정자동),김치열내과의원,127.01026868076075,37.293209920012735
220,"경기도 수원시 장안구 월드컵로428번길 19, 206호 (연무동)",김필규한의원,127.0259622516,37.2945090023
221,경기도 수원시 팔달구 덕영대로697번길 17 (화서동),김한의원,126.99097569437778,37.28494191254558
222,"경기도 수원시 권선구 상탑로 132-10, 3층 (서둔동, 삼진프라자)",김한의원,126.98580760096598,37.270500102476404
223,경기도 수원시 장안구 송원로 81 (조원동),김형주비뇨기과의원,127.00939897907818,37.30228875870578
224,"경기도 수원시 영통구 봉영로 1569, NEW WORLD PLAZA 607호 (영통동)",꽃보다의원,127.07102134299241,37.25206234345055
225,"경기도 수원시 권선구 금곡로 205, 해피라움 4층 412호 (금곡동)",꿈꾸는소아치과의원,126.952960325252,37.2743274287064
226,"경기도 수원시 권선구 정조로 538, 1층 (세류동)",꿈꾸는한의원,127.011638450826,37.2570665627177
227,경기도 수원시 영통구 봉영로 1587 (영통동),꿈동산치과의원,127.07227293320003,37.25322645382511
228,경기도 수원시 권선구 덕영대로1201번길 8 (권선동),꿈을심는치과의원,127.02258545769841,37.249580303621386
229,"경기도 수원시 영통구 중부대로 295 (원천동,외 10필지)",나누리병원,127.0481715074,37.2738538372
230,"경기도 수원시 영통구 중부대로 295 (원천동, 외 11필지)",나누리수원병원,127.04753796453957,37.27356899784707
231,"경기도 수원시 영통구 중부대로 293-3, 6층 (원천동)",나눔이치과의원,127.04758665664374,37.2740309187756
232,경기도 수원시 장안구 정자로 169 (정자동),나래부부치과의원,126.99327384822193,37.30581356027686
233,경기도 수원시 팔달구 팔달로120번길 6 (화서동),나무한의원,127.00450131355076,37.27914364826878
234,경기도 수원시 장안구 장안로 312 (파장동),나종완치과의원,126.98878844137874,37.30929834103506
235,"경기도 수원시 영통구 반달로7번길 6, 705호 (영통동, 센타프라자)",남경한의원,127.07407851565767,37.25230914488519
236,"경기도 수원시 권선구 권선로 690, 402호 (권선동)",남문장생한의원,127.02157746752484,37.27382193636551
237,경기도 수원시 팔달구 정조로 783,남문치과의원,127.0164774950313,37.27794581926109
238,경기도 수원시 팔달구 수원천로255번길 13 (영동),남문한의원,127.01831111111112,37.27601944444446
239,경기도 수원시 권선구 정조로 522 (세류동),남부의원,127.01148425630126,37.2556728439597
240,경기도 수원시 팔달구 세지로 148 (인계동),남상수치과의원,127.02099609372288,37.26466034171133
241,"경기도 수원시 권선구 덕영대로1201번길 16, 세일프라자 5층 (권선동)",남수원웰치과의원,127.02268922363116,37.24982897139745
242,경기도 수원시 팔달구 정조로 786 (팔달로2가),남피부과의원,127.01701727242722,37.27817299174195
243,경기도 수원시 장안구 만석로19번길 11-2 (천천동),내몸사랑한의원,126.982461111111107,37.296166666666664
244,"경기도 수원시 영통구 반달로7번길 16 (영통동, e-폴리스)",노들담한의원,127.07439445058986,37.252658565262315
245,"경기도 수원시 팔달구 권광로 195, 학산빌딩 202호 (인계동)",노블정형외과의원,127.0326839743,37.2649449442455
246,경기도 수원시 장안구 경수대로 920 (조원동),노블클래식의원,127.00970569827336,37.30159674737658
247,"경기도 수원시 팔달구 중부대로 20, 7층 (구천동, 녹산문고)",녹산굿모닝치과의원,127.0188250961,37.2749722231
248,"경기도 수원시 장안구 화산로125번길 5, 천천 푸르지오 301ㆍ302호 (천천동)",누가소아청소년과의원,126.98031747471093,37.29426152683979
249,경기도 수원시 팔달구 권선로 731 (인계동),누가한의원,127.0310964851696,37.25832574643138
250,"경기도 수원시 영통구 대학로 56, 501호 (이의동)",누리이비인후과의원,127.0451929847,37.3008285013
251,"경기도 수원시 권선구 경수대로302번길 22, 204호 (권선동, 성지상가)",누리치과의원,127.02220768019768,37.25301512345427
252,"경기도 수원시 팔달구 권광로 211, 동수원메디뷰 202,203호 (인계동)",뉴니스의원,127.0332506430313,37.26627952849481
253,경기도 수원시 장안구 서부로 2139 (율전동),뉴하나로외과의원,126.97164184330205,37.299459624653224
254,경기도 수원시 권선구 금호로 230 (탑동),늘밝은성모안과의원,126.97531621522228,37.2752414586452
255,"경기도 수원시 권선구 금곡로 205, 해피라움 801~808호 (금곡동)",늘봄의원,126.952960325252,37.2743274287064
256,경기도 수원시 영통구 중부대로246번길 51 (매탄동),늘편한가정의학과의원,127.04177707392154,37.27269590339643
257,경기도 수원시 팔달구 중부대로143번길 29 (우만동),늘푸른소아과의원,127.03204616546918,37.27966559049089
258,경기도 수원시 영통구 영통로90번길 12 (망포동),늘푸른치과의원,127.05988890409125,37.23765606475512
259,경기도 수원시 장안구 영화로25번길 21 (영화동),늘푸른한의원,127.00839615168225,37.288748138417915
260,경기도 수원시 영통구 동탄원천로1109번길 37 (매탄동),다나가정의원,127.0562563312388,37.269828409701205
261,경기도 수원시 팔달구 일월로22번길 17 (화서동),다나이비인후과의원,126.9807391547537,37.285964823808456
262,경기도 수원시 권선구 수인로 255-1 (구운동),다나한의원,126.97398380417628,37.28085285047095
263,"경기도 수원시 장안구 덕영대로535번길 38, 5층 (천천동, 로얄프라자)",다니치과의원,126.98241452006508,37.29718121790333
264,경기도 수원시 영통구 중부대로246번길 24 (매탄동),다람한의원,127.04208897168687,37.27402572252185
265,"대전광역시 서구 계백로1158번길 76, 2층 (가수원동)",다복치과의원,127.35312589362445,36.30139634469291
266,"경기도 수원시 팔달구 덕영대로 695, 4층 (화서동, 화서프라자)",다사랑한의원,126.99031717226421,37.28472560445871
267,경기도 수원시 장안구 정조로 1039 (송죽동),다선의원,127.00629021538685,37.29887942947868
268,"경기도 수원시 권선구 탑동로 9, 2층 (탑동)",다솔내과의원,126.97494824843909,37.2696837480878
269,경기도 수원시 권선구 삼천병마로1598번길 18 (오목천동),다솔한의원,126.964536111111116,37.245522222222220
270,경기도 수원시 영통구 효원로 387 (매탄동),다솜연합치과의원,127.0439072256338,37.25923370062597
271,"경기도 수원시 권선구 금곡로 219, 리더스 빌딩 404, 405호 (금곡동)",다시봄날의원,126.954079196941,37.2750009452322
272,"경기도 수원시 팔달구 동말로77번길 1, 301호 (화서동)",다온한의원,127.002558818308,37.2789352956607
273,"경기도 수원시 영통구 효원로 381, 3층 301호 (매탄동, 새롬프라자16차)",다원정신건강의학과의원,127.04331040546863,37.25932371474517
274,"경기도 수원시 팔달구 권광로 184, 캐슬타워 308, 309호 (인계동)",다이즐한의원,127.033136951058,37.2639129449557
275,경기도 수원시 장안구 월드컵로428번길 35 (연무동),다인치과의원,127.02657706466519,37.295074524979846
276,"경기도 수원시 권선구 금곡로 205, 해피라움 4층 406호 (금곡동)",다정정신건강의학과의원,126.95296021311677,37.274326437527606
277,"경기도 수원시 영통구 광교중앙로 250, 304호 (하동, 광교더존프라자)",다정한의원,127.067490870613,37.2923178634417
278,경기도 수원시 팔달구 권광로 184 (인계동),다정흉부외과의원,127.0331352594,37.2639115038
279,"경기도 수원시 영통구 중부대로 238, 3층 (매탄동)",닥터리내과의원,127.0418626398,37.2750239847
280,"경기도 수원시 영통구 중부대로 238, 2,4층 (매탄동)",닥터반마취통증의학과의원,127.04187302117273,37.27501693312668
281,"경기도 수원시 팔달구 권광로 208, 4층 (인계동)",닥터수의원,127.02574782900783,37.255472479519895
282,경기도 수원시 팔달구 권광로 174 (인계동),닥터스마일치과의원,127.03296963237287,37.262866482967844
283,"경기도 수원시 영통구 광교중앙로 145, 광교엘포트아이파크 2층 201호, 218호 (이의동)",닥터스피부과의원,127.05778345195462,37.28708760864179
284,"대전광역시 서구 도안동로 9, 리더스프라자비 4층 (가수원동)",닥터신치과의원,127.35269919516726,36.30553946059651
285,"경기도 수원시 팔달구 동말로 84, 401호 (화서동, 화서프라자)",닥터이치과의원,127.00325192849148,37.27862108604089
286,"경기도 수원시 팔달구 권광로 181, 씨네파크 307-1호 (인계동)",닥터최정신건강의학과의원,127.0322197770336,37.26374956886028
287,경기도 수원시 팔달구 동말로 71 (화서동),단경한의원,127.00187789382178,37.27895231760172
288,"경기도 수원시 팔달구 권광로 270, 3층 (인계동)",단아안밝은아침한의원,127.0358503700707,37.27120565877924
289,경기도 수원시 팔달구 매산로 11,단아치과의원,127.00275270020408,37.267437101051804
290,"경기도 수원시 권선구 금곡로 100, 303~304호 (금곡동, 칠보프라자)",달팽이이비인후과의원,126.94128856440864,37.273874308324665
291,"경기도 수원시 권선구 당진로 29-4, 301,302호 (당수동, 기와프라자)",당수성모내과의원,126.94015159580199,37.291548510823844
292,"경기도 수원시 팔달구 중부대로 33, 대성빌딩 2층 (지동)",대성의원,127.020429240215,37.2754616726373
293,"경기도 수원시 팔달구 중부대로 33, 대성빌딩 1층 (지동)",대성한의원,127.02043081887719,37.27546212289543
294,"대전광역시 서구 계백로 1135, 6층 604,605,606호 (가수원동)",대전미래항외과의원,127.3494980667,36.3047666348
295,"경기도 수원시 팔달구 인계로 126, 수원미디어시티 (인계동)",대한산업보건협회부설수원의원,127.0312606734,37.2671413478
296,"경기도 수원시 팔달구 경수대로 561, 금호빌딩 (인계동)",더강한의원,127.029761607281,37.2761317802887
297,"경기도 수원시 팔달구 매산로 24, 4층 401호 (매산로2가)",더갤러리아치과의원,127.0326593422627,37.26493894571334
298,"대전광역시 서구 도안동로11번길 10, PLC빌딩 2층 201,202호 (가수원동)",더숨내과의원,127.352193355706,36.3064010403609
299,경기도 수원시 장안구 이목로 24,더아름다운치과의원,126.98478184979255,37.308609456991434
300,"경기도 수원시 권선구 금곡로 202, 312,313호 (금곡동, e-SPACECITY-1)",더아이비치과의원,126.9526856282,37.2734829541
301,경기도 수원시 장안구 만석로19번길 25-5 (천천동),더오케이치과의원,126.98307791705558,37.29620098616679
302,"경기도 수원시 영통구 봉영로 1620, 4층 406호 (영통동, 대우 월드마크 영통)",더웰e치과의원,127.0756457349,37.25501850649999
303,"경기도 수원시 영통구 봉영로 1620 (영통동, 대우월드마크영통 3,5,6,7,8층)",더웰병원,127.075416666666669,37.254911111111113
304,경기도 수원시 영통구 인계로 220 (매탄동),더웰이비인후과의원,127.04136551749073,37.26489283894818
305,"경기도 수원시 영통구 봉영로 1620 (영통동, 대우월드마크 4층)",더웰치과의원,127.0756457349,37.2550185065
306,"경기도 수원시 권선구 금곡로196번길 35, 207~221호 (금곡동)",더위즈메디컬의원,126.953175239316,37.273218423033
307,"경기도 수원시 팔달구 권광로 208, 인송빌딩  203호 (인계동)",더조은치과의원,127.0339388217,37.265882755999996
308,"경기도 수원시 팔달구 매산로 9 (매산로1가,3층)",더좋은서울치과의원,127.00243520177392,37.26738692898921
309,"경기도 수원시 영통구 광교호수공원로 277, 2F-004~011호 (원천동, 광교중흥에스클래스)",더준피부과의원,127.056777997528,37.2839417579058
310,"경기도 수원시 장안구 경수대로 920, 1 4층 (조원동)",더채움치과의원,127.009709355319,37.3016415372203
311,"경기도 수원시 팔달구 동말로77번길 1, 4층 (화서동)",더편한치과의원,127.00255735243242,37.27893466497476
312,"경기도 수원시 영통구 덕영대로1556번길 16, 2층 201호 (영통동, 디지털엠파이어빌딩)",더힘의원,127.0591761315,37.2452641686
313,"경기도 수원시 팔달구 권광로 200 (인계동,5층)",도도의원,127.03355228074778,37.265097289569695
314,"대전광역시 서구 원도안로 47, 우보메디피아 202호 (가수원동)",도솔치과의원,127.34756723108538,36.308229199949714
315,"대전광역시 서구 원도안로 16, 지산프라자 3층 (가수원동)",도안베스트치과의원,127.34917241321743,36.30564353596462
316,"대전광역시 서구 원도안로 51, 성광타워 306호 (가수원동)",도안엠치과의원,127.34746602769917,36.308507058273115
317,"경기도 수원시 영통구 센트럴타운로 94, 4층 402호 (이의동, 엔에스코어빌딩)",도원한의원,127.0509122492,37.2919383489
318,경기도 수원시 영통구 봉영로 1767 (영통동),동기한의원,127.0816473986612,37.26672159661491
319,"경기도 수원시 팔달구 팔달로 54-1, 2층 (고등동)",동남내과의원,127.0025887561,37.2740113803
320,"경기도 수원시 팔달구 중부대로239번길 5, 203호 (우만동, 우만동R타워)",동생한의원,127.0420627719835,37.275629570936644
321,경기도 수원시 장안구 경수대로 762 (연무동),동서요양병원,127.0216452364624,37.291201034972936
322,"경기도 수원시 팔달구 중부대로39번길 6 (지동, 2층)",동서의원,127.02143207139548,37.275487174992655
323,경기도 수원시 장안구 서부로 2123 (율전동),동서한의원,126.97092358979033,37.29813405200765
324,경기도 수원시 장안구 정조로 941 (영화동),동성한의원,127.01190595918041,37.291285185818936
325,"경기도 수원시 팔달구 중부대로 110, 한라시그마팰리스 3층 306호 (인계동)",동수원연세마취통증의학과의원,127.02982987221,37.2762555660412
326,"경기도 수원시 팔달구 권광로 184 (인계동, 캐슬타워 3층)",동수원예치과의원,127.03335785187028,37.26385751786813
327,"경기도 수원시 권선구 효원로256번길 7, 202,208,209호 (권선동, 지오베르크)",동수원오케이치과의원,127.02977484670053,37.261648978241084
328,경기도 수원시 장안구 만석로159번길 26 (송죽동),동신한의원,126.99744300236765,37.30271784160053
329,경기도 수원시 팔달구 화양로35번길 6 (화서동),동원한의원,126.99651792501822,37.28124851137763
330,"경기도 수원시 권선구 매송고색로 545, 남옥빌딩 3층 (오목천동)",동인당한의원,126.96576802602192,37.24602367606051
331,"경기도 화성시 효행로 241, 209호 (기안동, 남수원시티프라자)",동인당한의원,126.9724386572,37.2260402072
332,"경기도 수원시 권선구 금곡로 106, 호매실택지개발지구준주거2-3블럭304호 (금곡동, 우성메디피아)",두리이비인후과의원,126.94199656249957,37.27397196971081
333,"경기도 수원시 영통구 동탄지성로 550-24, 영통플래티넘베이스 B동 3층 305호 (망포동)",두리이비인후과의원망포점,127.049358149295,37.2409406771349
334,"경기도 수원시 장안구 만석로19번길 29, 502,503호 (천천동, 부강프라자)",두리이비인후과의원수원점,126.98311842821267,37.29660826077391
335,경기도 수원시 장안구 서부로 2132 (율전동),두리치과의원,126.9721609933348,37.29861999484981
336,경기도 수원시 권선구 칠보로235번길 13 (호매실동),두암경희한의원,126.95938730210537,37.26937584909507
337,"경기도 수원시 장안구 정조로 925, 2층 (영화동)",드림메디임승길내과의원,127.012908196539,37.2901232717471
338,경기도 수원시 팔달구 중부대로 245,드림소아청소년과의원,127.0428564154318,37.27538781950133
339,"경기도 수원시 팔달구 매산로 48, 성진빌딩 2층 (매산로2가)",디아트라인의원,127.006593397867,37.268408461468
340,"경기도 수원시 영통구 도청로18번길 26, 힐스테이트광교중앙역 3층 326호~330호 (이의동)",디에스타의원,127.056868624932,37.2876402080675
341,경기도 수원시 팔달구 권광로 195 (인계동),디테일의원,127.03265934226272,37.264938945713354
342,"경기도 수원시 장안구 율전로 104, 2층 (율전동)",따뜻한치과의원,126.96917747107075,37.298576920314005
343,"경기도 수원시 영통구 덕영대로 1531, 4층 401호 (망포동)",라앤의원,127.05847810067799,37.2462448520984
344,"경기도 수원시 권선구 경수대로 374, 2층 (권선동)",라엘의원,127.024167584046,37.2596580502525
345,"경기도 수원시 영통구 동탄지성로 550-24, 영통플래티넘베이스 B동 2층 205호 (망포동)",라인플란트치과의원,127.049358149295,37.2409406771349
346,경기도 수원시 팔달구 덕영대로 905 (매산로1가),라임치과의원,127.00056370784904,37.26788793183127
347,"경기도 수원시 장안구 대평로 86, 403호 (정자동)",라파엘소아청소년과의원,126.993282953138,37.2959921536738
348,"경기도 수원시 권선구 금호로 231, 3층 (구운동, 해주빌딩)",라파이비인후과의원,126.97520783558953,37.2757207763655
349,경기도 수원시 권선구 금곡로102번길 48,러블리의원,126.94140495488735,37.27203154222198
350,"경기도 수원시 권선구 매곡로 88, 2층 (금곡동, 민경빌딩)",레인보우소아청소년과의원,126.95567438249456,37.27172436663017
351,"경기도 수원시 팔달구 권광로 199, 101호 (인계동)",려움한의원,127.0329059875231,37.26554065169099
352,"경기도 수원시 팔달구 권광로 191, 3층 일부층 (인계동)",로담한의원,127.0326350289,37.2646432889
353,"경기도 수원시 팔달구 효원로 288, 대원콤비프라자 706호 (인계동)",로데오의원,127.03303922794232,37.260858799032746
354,"경기도 수원시 영통구 봉영로 1590, 313호 (영통동, 밀레니엄 프라자)",로미오치과교정과치과의원,127.07344476963732,37.25276441699657
355,"경기도 수원시 팔달구 권광로 184, 205호 (인계동, 캐슬타워)",로아한의원,127.03335341531975,37.26403051779716
356,"경기도 수원시 팔달구 덕영대로 925 (매산로1가,3층)",로앤산부인과의원,127.00142051000001,37.26608944539999
357,"경기도 수원시 권선구 덕영대로1201번길 16, 2층 (권선동, 세일프라자)",류마나우한의원,127.02270072975276,37.24982164798185
358,"경기도 수원시 권선구 금곡로 219, 리더스 빌딩 5층,6층 (금곡동)",리더스도준한방병원,126.954079196941,37.2750009452322
359,경기도 수원시 영통구 반달로7번길 6 (영통동),리더스치과의원,127.07383659441486,37.25231005583032
360,"경기도 수원시 권선구 권광로 149, 2층 (권선동)",리버스의원수원점,127.03118601972157,37.261079156062834
361,경기도 수원시 영통구 중부대로 266 (매탄동),리빙웰치과의원,127.04470032315501,37.274140130952574
362,"경기도 수원시 팔달구 팔달문로163번길 39, (우만동)",리앤초이(LnC)치과의원,127.042163888888894,37.288016666666664
363,"경기도 수원시 영통구 도청로17번길 10, 성희프라자 205호 (이의동)",리지정신건강의학과의원,127.053992323569,37.2861125826494
364,"경기도 수원시 권선구 금곡로102번길 15, 308-311호 (금곡동, 비즈웍스)",림한의원,126.94185260488127,37.273499753835246
365,"경기도 수원시 영통구 센트럴타운로 106, 센트럴프라자 203~205호 (이의동)",마리마취통증의학과의원,127.05015942731895,37.29273879185681
366,"경기도 수원시 팔달구 아주로 3, 3층 (우만동, 대학빌딩 3층 일부(301호))",마마라정신건강의학과의원,127.043825034923,37.2751202264477
367,"경기도 수원시 영통구 영통로 195, 골든스퀘어 3층 301호, 309호, 310호, 310-1호, 311호호 (망포동)",마법의손의원,127.055799794469,37.2451815599677
368,"경기도 수원시 권선구 금곡로 116, 유동타워 605호 (금곡동)",마음나루의원,126.9430609796,37.2739040074
369,"경기도 수원시 영통구 중부대로 266-1, 2층 (매탄동)",마음똑똑정신건강의학과의원,127.044860776143,37.2741670782895
370,대전광역시 서구 계백로1158번길 7-11 (가수원동),만석의원,127.35261925090206,36.304595237066685
371,경기도 수원시 장안구 경수대로994번길 23 (송죽동),맑은맘한의원,127.0036963398726,37.30661033600369
372,"경기도 수원시 권선구 덕영대로 1205, 401호 (권선동, 미래타운빌딩)",맑은미소치과의원,127.02253825213508,37.24925582316145
373,"경기도 수원시 권선구 곡선로49번길 2, 3층 (곡반정동, 하이디프라자)",맑은샘내과의원,127.0302257589,37.239032654
374,"경기도 수원시 팔달구 중부대로143번길 29 (우만동,우암빌딩501호)",맑은샘한의원,127.03205516467186,37.279661996868185
375,"경기도 수원시 영통구 영통로 136, 센트럴타워 301호 (망포동)",망포세우린한의원,127.056305206854,37.2396174558001
376,경기도 수원시 팔달구 갓매산로 38 (매산로2가),매산힐스치과의원,127.00564788864997,37.2678911566562
377,"경기도 수원시 영통구 인계로 264, 2층,3층 (매탄동)",매탄삼성내과의원,127.04636578701183,37.26370522825739
378,경기도 수원시 영통구 동탄원천로881번길 58 (매탄동),매현가정의학과의원,127.04260219764193,37.255745349140966
379,"경기도 수원시 권선구 탑동로 66, 4층 (탑동)",매홀의료소비자생활협동조합탑온누리한의원,126.9738866763,37.2747690067
380,경기도 수원시 장안구 경수대로 940 (조원동),맥한의원,127.0080410386382,37.3031610376517
381,"경기도 수원시 팔달구 덕영대로 907 (매산로1가,(4층))",맨즈업남성의원,127.000397222222219,37.267630555555556
382,경기도 수원시 영통구 인계로 214 (매탄동),맹해성이비인후과의원,127.0410020482606,37.26536174538805
383,"경기도 수원시 장안구 경수대로 930, 북수원홈플러스 4층 (조원동)",메디365플러스의원,127.0088114374301,37.30276862374031
384,경기도 수원시 권선구 금곡로102번길 20 (금곡동),메디모아소아청소년과의원,126.94119200475882,37.27326765205867
385,"경기도 수원시 권선구 수인로 291, 3층 (구운동, 이마트)",메디모아의원,126.97021875020768,37.28242256422431
386,경기도 수원시 팔달구 중부대로 190 (인계동),메디앤이비인후과의원,127.0367715663,37.2767016105
387,"경기도 수원시 장안구 팔달로 235 (영화동, 메디움수원요양병원)",메디움수원요양병원,127.0108982068,37.28773914619999
388,"경기도 수원시 영통구 효원로 387, 301호 (매탄동, 풍성프라자)",메디웰아주내과의원,127.04391009017803,37.25923337619696
389,"경기도 수원시 영통구 효원로 387, 302호 (매탄동, 풍성프라자)",메디웰준이비인후과의원,127.04391009017803,37.25923337619696
390,"경기도 수원시 팔달구 인계로 154, 동수원뉴코아아울렛 9층 (인계동)",메디코아의원,127.034316011963,37.2663068577779
391,"경기도 수원시 팔달구 권광로 163, 보성빌딩 2(후면)층 (인계동)",메디큐브의원,127.031744835484,37.2624367884503
392,"경기도 수원시 권선구 효원로256번길 7, 210호 (권선동, 지오베르크)",메이드의원,127.0297748467,37.2616489782
393,경기도 수원시 팔달구 경수대로565번길 51 (인계동),메이저요양병원,127.0273449072766,37.27569139406472
394,"경기도 수원시 팔달구 팔달로 105, 3층 (화서동)",메트로치과의원,127.0031723390293,37.27862072641453
395,경기도 수원시 팔달구 덕영대로 905 (매산로1가),멘파워비뇨기과의원,127.00042574034893,37.26785157851431
396,경기도 수원시 권선구 정조로413번길 68 (세류동),명가의원,127.01262596892427,37.24868062006343
397,경기도 수원시 팔달구 매산로 18 (매산로1가),명가한의원,127.00351751031896,37.267314818447126
398,경기도 수원시 권선구 정조로 582 (세류동),명내과의원,127.01348712985842,37.26075811971966
399,경기도 수원시 장안구  장안로125번길  3 (정자동),명성의원,126.99966616606178,37.29481099370479
400,경기도 수원시 영통구 봉영로 1606 (영통동),명성형외과의원,127.07452360286308,37.254057645187316
401,"대전광역시 서구 계백로 1141, 5층 502호 (가수원동, 가수원클리닉빌딩)",명인치과의원,127.35003714852779,36.30481191921987
402,"경기도 수원시 장안구 파장로 74, 301호 (파장동)",명진한의원,126.99345430118333,37.30602621546321
403,"대전광역시 서구 계백로 1141, 3,4층 303호, 401호 (가수원동)",모담의원,127.35003714852779,36.30481191921987
404,"경기도 수원시 권선구 서수원로37번길 6-16, 201호 (오목천동)",모든이치과의원,126.977684614522,37.2334754932367
405,경기도 수원시 팔달구 일월로22번길 17 (화서동),모리나치과의원,126.98076619918609,37.28596484110335
406,경기도 수원시 팔달구 권광로 211 (인계동),모아치과병원,127.03328224457336,37.266362415212704
407,"경기도 수원시 팔달구 매산로 11 (매산로1가, 케이빌딩)",모앤모의원,127.0027238204,37.2674445894
408,경기도 수원시 장안구 정자천로173번길 11-3 (정자동),모자한의원,126.994558333333330,37.295686111111110
409,"경기도 수원시 팔달구 중부대로 56, 201호 (인계동)",못골한의원,127.0230286172,37.275371542
410,"경기도 수원시 팔달구 권광로 208, 인송빌딩 201, 202호 (인계동)",문세희여성의원,127.03393882172708,37.26588275603196
411,경기도 수원시 팔달구 정조로 764 (팔달로3가),문안과의원,127.01688300944708,37.27594907791961
412,"경기도 수원시 권선구 권광로 145, 2층 (권선동, 이오스오피스텔)",문치과의원,127.03105963771156,37.26078004313952
413,"경기도 수원시 권선구 금곡로 202, 402,403,404호 (금곡동, e-SPACECITY-1)",문치환한의원,126.9526856282,37.2734829541
414,"경기도 수원시 팔달구 권광로 197, 5층 (인계동)",뮤즈의원,127.005423027955,37.2685252958405
415,경기도 수원시 권선구 금호로 222 (탑동),미담치과의원,126.974325976817,37.2750439201615
416,"경기도 수원시 영통구 중부대로 288, 3층 (매탄동, 홍신빌딩)",미드림성형외과의원,127.046947222222215,37.273436111111110
417,"경기도 수원시 권선구 금곡로197번길 18-24, 호매실 애비뉴 8번가 3층 (금곡동)",미듬가는의료소비자생활협동조합해밀의원,126.95298254592315,37.27467605010889
418,"경기도 수원시 권선구 동수원로 232, 센터블스파 2층 (권선동)",미래여성의원,126.97692754988333,37.24946069115386
419,"경기도 수원시 권선구 금곡로 219, 리더스 빌딩 401,402호 (금곡동)",미래연세치과의원,126.954079196941,37.2750009452322
420,경기도 수원시 권선구 덕영대로1201번길 8 (권선동),미래외과의원,127.02245017568629,37.24948661974199
421,"경기도 수원시 팔달구 동말로 84 (화서동,화서프라자 302호)",미래이비인후과의원,127.003280555555563,37.278683333333333
422,"경기도 수원시 팔달구 팔달로 105, 2층 (화서동)",미래한방병원,127.00315268032922,37.278105693857036
423,경기도 수원시 영통구 센트럴타운로 85 (이의동),미러의원,127.05177377503591,37.29037033568024
424,"경기도 수원시 팔달구 일월로22번길 18, 4층 401호 (화서동)",미서울치과의원,126.98102051306002,37.28563620464361
425,"경기도 수원시 권선구 권광로 149, 5층 (권선동)",미소담치과의원,127.03118601972157,37.261079156062834
426,"경기도 수원시 권선구 경수대로 393, 1층 (권선동)",미소더예쁨치과의원,127.0240754238,37.261593328465
427,"경기도 수원시 팔달구 덕영대로 923-10 (매산로1가,204호)",미소드림정신과의원,127.0016910801,37.2659452751
428,경기도 수원시 장안구 파장로 82 (파장동),미소드림치과의원,126.99206795228031,37.30658187013986
429,"경기도 수원시 권선구 탑동로 68, 3층 (탑동)",미소드림치과의원,126.97383439513698,37.274941288200544
430,"경기도 수원시 영통구 봉영로 1590, 312호 (영통동, 밀레니엄프라자)",미소로한의원,127.07344773529671,37.252785302406636
431,"경기도 수원시 영통구 봉영로 1569, NEW WORLD PLAZA 2층 203호, 207호 (영통동)",미소마취통증의학과의원,127.07102269696,37.2520637842978
432,경기도 수원시 권선구 금곡로 100 (금곡동),미소안치과의원,126.94128856440864,37.273874308324665
433,경기도 수원시 권선구 금호로 14-3 (호매실동),미소애치과의원,126.95345303288377,37.268562658328456
434,경기도 수원시 팔달구 덕영대로 923-10,미소의원,127.00168392142422,37.26595220228426
435,경기도 수원시 팔달구 권광로 211 (인계동),미소인치과교정과치과의원,127.033055555555549,37.266269444444447
436,경기도 수원시 장안구 만석로19번길 25-6 (천천동),미소인치과의원,126.98290329624507,37.29653538569043
437,"경기도 수원시 영통구 대학3로 7, 광교나보나스퀘어 3층 301호,307호,308호,309호 (이의동)",미소진연합의원,127.04200046006,37.299843943278
438,경기도 수원시 영통구 중부대로246번길 47 (매탄동),미소진치과의원,127.04186736259945,37.27286526698998
439,경기도 수원시 장안구 대평로 86 (정자동),미소진치과의원,126.99328261471541,37.295992964598234
440,"경기도 수원시 영통구 매영로 84, 308,309호 (매탄동, 한국2차@상가)",미소치과의원,127.05004393157317,37.2681981271021
441,"경기도 수원시 권선구 금곡로102번길 15, 301~304호 (금곡동, 비즈웍스)",미소플러스치과의원,126.9418526049,37.2734997538
442,경기도 수원시 팔달구 덕영대로 923-10 (매산로1가),미스미즈산부인과의원,127.00142687930247,37.2658909320177
443,"경기도 수원시 권선구 매탄로 11, 305호 (권선동, 현대상가)",미앤미의원,127.0355355232133,37.25302646030908
444,"경기도 수원시 팔달구 덕영대로 899, 2층 207호 (매산로1가, 세진브론즈빌)",미앤아이의원,127.00031116781532,37.268151036899546
445,"경기도 수원시 권선구 금곡로102번길 48, 402호 (금곡동, 호매실주공프라자)",미앤필의원,126.94138921253361,37.27203263104938
446,"경기도 수원시 팔달구 덕영대로 693, 풍성프라자 201~202, 204호 (화서동)",미올린의원,126.990204159255,37.2849146662118
447,"경기도 수원시 팔달구 효원로 288, 대원콤비프라자 202호 (인계동)",미의원,127.00031116783016,37.2681546410657
448,경기도 수원시 팔달구 권광로 175,미치과의원,127.03201831255544,37.263234354286695
449,경기도 수원시 권선구 당진로 29-4 (당수동),미치과의원,126.9401921354826,37.29159900225659
450,"경기도 수원시 권선구 탑동로3번길 13, 2층 (탑동)",민가정의학과의원,126.97451555904243,37.26888714844205
451,"경기도 수원시 권선구 호매실로218번길 128, 3층 (호매실동)",민이비인후과의원,126.9610917091,37.265791123
452,경기도 수원시 장안구 만석로159번길 68-6 (파장동),민제한의원,126.996672222222216,37.304655555555556
453,"경기도 수원시 권선구 정조로495번길 7-1, 2층 (세류동)",민치과의원,127.0109293205,37.2533409956
454,"경기도 수원시 장안구 수성로 263, 2층 (정자동)",민플란트치과의원,127.0013307426,37.2901616315
455,경기도 수원시 팔달구 효원로 269,민플러스치과의원,127.03121526758775,37.26226504453481
456,경기도 수원시 장안구 수성로 263 (정자동),믿음한의원,127.00128565367629,37.29021928567711
457,"경기도 수원시 팔달구 권광로 200, 3층 (인계동)",바디올한의원,127.033564193032,37.2651242756443
458,경기도 수원시 장안구 경수대로 937 (송죽동),바로본병원,127.00752211450435,37.30222039069453
459,"경기도 수원시 권선구 탑동로 66, 2층 (탑동)",바로세움의원,126.9738866763,37.2747690067
460,경기도 수원시 권선구 권광로 55 (권선동),바르다석치과의원,127.02577283319897,37.254978594554984
461,"대전광역시 서구 계백로 1135, 302, 303, 304호 (가수원동)",바르다한의원,127.3494980667,36.3047666348
462,"경기도 수원시 영통구 봉영로 1569 (영통동, NEW WORLD PLAZA)",바른i한의원,127.07100942047197,37.25207027105155
463,"경기도 수원시 영통구 덕영대로1555번길 13, 403호 (영통동, 세일빌딩)",바른뜸한의원,127.06083818301383,37.246770496738336
464,"경기도 수원시 팔달구 권광로 187, 대성프라자 3층 1호 (인계동)",바른몸제통의원,127.032471617692,37.2642509299937
465,"경기도 수원시 영통구 효원로 383, 4층 402호,403호 (매탄동)",바른몸한의원,127.04362601692833,37.2592731404771
466,경기도 수원시 권선구 당진로15번길 56 (당수동),바른미소치과의원,126.93902964644012,37.29217018352507
467,"경기도 수원시 권선구 효원로 90, 401~403호 (세류동)",바른본치과의원,127.01167921486,37.2662818809918
468,"경기도 수원시 영통구 태장로82번길 15, 402호 (망포동, LG탑프라자)",바른뿌리한의원,127.05686883333159,37.23789178511886
469,"경기도 수원시 영통구 봉영로 1569 (영통동, 뉴월드프라자 311호)",바른성모정형외과의원,127.07102294651617,37.25207026311211
470,"경기도 수원시 팔달구 정조로 788, 2층 (팔달로2가)",바른이플란트치과의원,127.01700828755641,37.27833157607088
471,경기도 수원시 장안구 장안로 76 (정자동),바른정형외과의원,127.00316810451412,37.29118831937386
472,"경기도 수원시 장안구 파장로68번길 2, 2층 (파장동)",바른플란트치과의원,126.993456786019,37.3060210603327
473,"경기도 수원시 영통구 덕영대로 1505 (영통동, 늘푸른빌딩 201호)",박근석김진휘내과의원,127.055499999999995,37.246133333333333
474,경기도 수원시 장안구 수성로 253 (정자동),박기서내과의원,127.00015337293945,37.28977599454347
475,경기도 수원시 팔달구 화양로35번길 6,박기철치과의원,126.99650598807568,37.28126966835913
476,경기도 수원시 팔달구 중부대로 194 (인계동),박동준내과의원,127.03729603513057,37.276532140985275
477,경기도 수원시 팔달구 정조로 787-2 (팔달로2가),박비뇨기과의원,127.01653022644713,37.2784649977067
478,"경기도 수원시 장안구 송원로 81 (조원동, 메가플러스)",박소아청소년과의원,127.00944754157984,37.302354097981066
479,경기도 수원시 장안구 송정로 195 (조원동),박영부내과의원,127.01746869668139,37.29940139018848
480,"경기도 수원시 권선구 세권로 118, 3층 (세류동)",박용성치과의원,127.017394444444449,37.257186111111110
481,"경기도 수원시 장안구 수성로258번길 3, 201호 (영화동, 메가플러스)",박이비인후과의원,127.00103752005424,37.28957415752673
482,경기도 수원시 영통구 중부대로 267 (원천동),박정배치과의원,127.04523278442534,37.27462649356949
483,"경기도 수원시 영통구 중부대로 288 (매탄동, 홍신빌딩)",박종완마취통증의학과의원,127.047034749912,37.273479461384305
484,경기도 수원시 권선구 권중로 136 (권선동),박철치과의원,127.0319225672726,37.24940887864011
485,"경기도 수원시 영통구 대학로 101, 드림스퀘어1 301호 302호 (이의동)",박현성치과의원,127.0471758111,37.3043850185
486,"경기도 수원시 팔달구 향교로 161, 4층 (중동, 우림빌딩)",박홍용성형외과의원,127.01600335180095,37.27497607287171
487,"경기도 수원시 권선구 효원로256번길 7, 105-108,111,113,114,203-206호 (권선동)",박희붕외과의원,127.02977484670053,37.26164897824107
488,경기도 수원시 팔달구 화양로 34,반석치과의원,126.99713294663994,37.281107507354776
489,"경기도 수원시 팔달구 인계로 140 (인계동, 시안프라자 702호)",발머스한의원,127.0328479038211,37.26678410550753
490,"경기도 수원시 권선구 세권로 196, 2층 (권선동)",밝은21치과의원,127.02547269785876,37.25519141215737
491,경기도 수원시 영통구 중부대로 250-1 (매탄동),밝은마음정신건강의학과의원,127.0430950330325,37.27463086790195
492,경기도 수원시 영통구 봉영로 1569 (영통동),밝은미래정신과의원,127.07130257784327,37.25217101474681
493,"경기도 수원시 권선구 덕영대로1201번길 8, 3층 (권선동)",밝은미소안과의원,127.02258995318203,37.24953344888122
494,"경기도 수원시 장안구 경수대로 940, 일호골든타워 302호 (조원동)",밝은세상의원,127.00787408904137,37.3029772368071
495,"경기도 수원시 권선구 탑동로 9, 태영빌딩 4층 (탑동)",밝은수치과의원,126.97498179464665,37.26967590935449
496,경기도 수원시 권선구 덕영대로1201번길 22 (권선동),밝은우리치과의원,127.0227614312989,37.25008124888897
497,"경기도 수원시 권선구 금곡로 106, 305호 (금곡동, 우성메디피아)",밝은유안과의원,126.94225575883527,37.27402505735214
498,경기도 수원시 장안구 송원로 81 (조원동),밝은의원,127.00944754157984,37.302354097981066
499,경기도 수원시 장안구 연무로 54 (연무동),방내과의원,127.0258273490091,37.29578129664915
500,"경기도 수원시 권선구 덕영대로 1205, 302호 (권선동, 미래타운)",방수관내과의원,127.02254028319041,37.24925954236451
501,"경기도 수원시 권선구 상탑로 52, 2층 (탑동, 일신빌딩)",방찬호소아청소년과의원,126.97687081525115,37.27138828226887
502,경기도 수원시 팔달구 매산로 54 (매산로2가),배도형한의원,127.007055555555553,37.268602777777780
503,경기도 수원시 팔달구 중부대로 33-1 (지동),배한익치과의원,127.02058416374396,37.27546570049292
504,"경기도 수원시 팔달구 중부대로 186, 3층 (인계동, SA오피스텔)",배혜경산부인과의원,127.03626649100002,37.2768387245
505,경기도 수원시 팔달구 정조로 790 (팔달로2가),백비뇨기과의원,127.01694519849823,37.27857666798655
506,경기도 수원시 팔달구 인계로 102 (인계동),백성병원,127.0285957211,37.2677547297
507,"경기도 수원시 팔달구 동말로 84, 204호 (화서동, 화서프라자)",백송한의원,127.00325643879452,37.2786210859169
508,"경기도 수원시 장안구 정조로 952, 602,603,604,605호 (영화동)",백향목경희한의원,127.0119319324,37.2924352575
509,"경기도 수원시 영통구 영통로 195, 2,3,4,6층 (망포동, 골든스퀘어)",버팀병원,127.05529456693364,37.245392190959905
510,경기도 수원시 장안구 팔달로259번길 10 (영화동),범아박승택한의원,127.013502777777774,37.289211111111108
511,"경기도 수원시 영통구 봉영로 1623, 드림피아빌딩 2층 212호,6층 일부,7,8,9층호 (영통동)",베데스다병원,127.07441714900628,37.255881408269694
512,"경기도 수원시 영통구 효원로 387, 402호 (매탄동, 풍성프라자)",베스탑비뇨기과의원,127.04391173474417,37.25923369901132
513,경기도 수원시 장안구 덕영대로535번길 34 (천천동),베스트경희한의원,126.98210012552053,37.297129936540856
514,경기도 수원시 장안구 만석로5번길 12-10 (천천동),베스트산부인과의원,126.9831006318,37.2954945762
515,"경기도 수원시 영통구 덕영대로1555번길 46, 2층 201호 (영통동, 롯데크리닉상가)",벽적골믿음한의원,127.06161026428279,37.24821897573349
516,경기도 수원시 팔달구 효원로307번길 61 (인계동),보건치과의원,127.0362151016,37.2637123725
517,경기도 수원시 권선구 세지로 100 (권선동),보람치과의원,127.01888917565121,37.26067448519592
518,"경기도 수원시 팔달구 중부대로 241, 동양부페 401호 (우만동)",보성한의원,127.042542468916,37.2755066098987
519,"경기도 수원시 장안구 송원로 20, 3층 304,305호 (송죽동, 수원 아너스빌 위즈)",보스턴에스치과의원,127.006568607,37.2970958425
520,"경기도 수원시 영통구 광교중앙로 250, 광교 더죤프라자 404호 (하동)",보스턴치과의원,127.067490870613,37.2923178634417
521,"경기도 수원시 팔달구 중부대로 36 (인계동,2,3층)",보스톤연세치과의원,127.02069384775287,37.27514840413765
522,경기도 수원시 영통구 동수원로 524 (매탄동),보스톤웰치과의원,127.04777548307243,37.273061333012095
523,"경기도 수원시 권선구 매송고색로 680-1, 4층 (고색동)",보스톤치과의원,126.97895168592527,37.25010984084258
524,"경기도 수원시 권선구 동수원로177번길 40, 상가104호 (권선동, 수원아이파크시티8단지)",보용당한의원,127.0249342956,37.2553319832
525,경기도 수원시 장안구 대평로90번길 8 (정자동),보원한의원,127.008674999999997,37.295297222222224
526,경기도 수원시 영통구 봉영로 1569 (영통동),복비뇨기과의원,127.07101844445634,37.25207747404904
527,경기도 수원시 영통구 청명남로60번길 1 (영통동),복음치과의원,127.07754043505209,37.25449905647139
528,"경기도 수원시 팔달구 일월로22번길 11, 2,3층 (화서동, 한영빌딩)",본정형외과의원,126.98045049859313,37.28576656084386
529,경기도 수원시 권선구 권광로 149 (권선동),본치과의원,127.03118774659211,37.261079288804055
530,"경기도 수원시 영통구 매영로 368, 2층 201호 (영통동, 현대아파트상가)",본한의원,127.0750229789045,37.25448548502459
531,경기도 수원시 팔달구 일월로22번길 17 (화서동),봄누리한의원,126.98073624969305,37.28596413065386
532,"경기도 수원시 영통구 영통로 511, 2층 (영통동)",봄봄치과의원,127.07749951609582,37.26443140074448
533,경기도 수원시 팔달구 권광로 181 (인계동),봄빛성형외과의원,127.0322197770336,37.26374956886028
534,경기도 수원시 영통구 영통로 215 (영통동),봄빛치과의원,127.05681930445303,37.24662409844737
535,경기도 수원시 팔달구 매산로 124 (교동),봄빛한의원,127.0142647282,37.2714119474
536,경기도 수원시 팔달구 매산로 124,봄빛한의원,127.01421227029428,37.27145503894726
537,"경기도 수원시 영통구 영통로 195, 5층 505호 (망포동, 골든스퀘어)",봄소아청소년과의원,127.05579934463476,37.24518291175783
538,경기도 수원시 팔달구 중부대로 39 (지동),봄치과의원,127.0210622339,37.2754584081
539,"경기도 수원시 영통구 중부대로 259, 402호 (원천동, 예스프라자)",봉피부과의원,127.04455965278058,37.274990562820875
540,경기도 수원시 팔달구 매산로 136,부부치과의원,127.0153849279315,37.271995527670526
541,"경기도 수원시 권선구 금호로 224, 1~3층 (탑동)",부부탑의원,126.9748968034,37.2751584747
542,"경기도 수원시 권선구 금호로 224, 2, 4층 (탑동)",부부탑한의원,126.97489680335734,37.27515847473058
543,경기도 수원시 권선구 곡반정로65번길 37 (곡반정동),부선당한의원,127.02675552298336,37.235072769603576
544,경기도 수원시 장안구 정조로933번길 3 (영화동),북문치과의원,127.01256319900363,37.29068357439164
545,경기도 수원시 장안구 송정로 66 (정자동),북수원정형외과의원,127.00269326588513,37.295877791801715
546,"경기도 수원시 장안구 이목로 24-3, 3층 302호 (정자동, 스카이프라자)",북수원하나이비인후과의원,126.98475793493811,37.30966269560704
547,"경기도 수원시 영통구 법조로 25, 광교 SK VIEW Lake 3층 301호,302호,303호 (하동)",뷰티스톤의원,127.060178440172,37.2874808899042
548,"경기도 수원시 팔달구 효원로 269, 에스팝타워 301호 (인계동)",뷰티엠의원,127.03123159892202,37.26225770762768
549,"경기도 수원시 팔달구 정조로791번길 7-10, 1층 (팔달로2가)",뷰티클래스의원,127.016313670734,37.2781794881691
550,경기도 수원시 팔달구 화산로 62 (화서동),브니엘치과의원,126.984658333333329,37.290130555555557
551,"경기도 수원시 영통구 도청로17번길 10, 3층 301호,302호 (이의동, 성희프라자)",블루비뇨기과의원,127.0539936768577,37.286112672146245
552,"경기도 수원시 팔달구 갓매산로 38 (매산로2가,외3필지 다성빌딩5층)",블리비의원,127.00565239768528,37.267880344084425
553,"경기도 수원시 영통구 영통로153번길 98, 국제프라자 2층 202호 203호 (망포동)",블리스치과의원,127.0499450711,37.2414119482
554,"경기도 수원시 팔달구 효원로 288 (인계동, 대원콤비프라자 102-1호)",비담한의원,127.03304094475394,37.260858957123
555,"경기도 수원시 팔달구 효원로 288 (인계동, 대원콤비프라자 102-1호)",비밀의정원한의원,127.033039114857,37.2608579881154
556,"경기도 수원시 권선구 권광로 62, 백림빌딩 1층 (권선동)",비아체의원,127.07079752564621,37.252084811815095
557,경기도 수원시 팔달구 덕영대로 923-10,비앤비성형외과의원,127.00167941192838,37.26595941056924
558,"경기도 수원시 영통구 봉영로 1569, 306호(영통동,뉴월드프라자)",비엔씨치과의원,127.070938888888890,37.251941666666667
559,"경기도 수원시 권선구 덕영대로1201번길 28, 303호 (권선동, 금강타운)",비타민치과의원,127.0229218142099,37.25036223195569
560,"경기도 수원시 영통구 봉영로 1763, 한성프라자 302호,601호 (영통동)",비타의원,127.081659795171,37.2664900976852
561,경기도 수원시 팔달구 권광로 163 (인계동),뿌리깊은한의원,127.03165780679447,37.26239273745615
562,경기도 수원시 팔달구 화양로67번길 3 (화서동),사)경기도실버자원봉사회수원청담한의원,126.995452777777771,37.283683333333336
563,경기도 수원시 팔달구 효원로 18 (매산로3가),사)대한결핵협회경기도지부부설복십자의원,127.00895216702199,37.27199634286906
564,"경기도 수원시 장안구 경수대로 950, 아울렛쇼핑타운 431,432,434호 (조원동)",사람사랑치과의원,127.00974180434892,37.3017156807422
565,"경기도 수원시 팔달구 화산로 62, 201-3호 (화서동)",사랑애한의원,126.98468970639166,37.290099378225534
566,경기도 수원시 장안구 장안로53번길 3 (영화동),사랑의의원,127.004088888888887,37.289238888888889
567,"경기도 수원시 권선구 삼천병마로1598번길 32, 401호 (오목천동, 대유빌딩)",사랑이가득한치과의원,126.96526125122857,37.245756232556
568,"경기도 수원시 영통구 중부대로 437, 1층 (원천동, 홈플러스(구 까르푸))",사랑이꽃피는동산치과의원,127.06367507415582,37.270091452893624
569,"경기도 수원시 권선구 탑동로 1, 4층 (탑동)",사랑이치과의원,126.975153854732,37.2690560491625
570,"경기도 수원시 영통구 봉영로 1569, NEW WORLD PLAZA 2,4층 201,411,412호 (영통동)",사랑인한의원,127.0710078236094,37.252069559909145
571,경기도 수원시 장안구 수성로261번길 16 (정자동),사랑채한의원,127.00080433711321,37.29055760719654
572,경기도 수원시 장안구 경수대로 963 (송죽동),사암명가한의원,127.00527085647231,37.303597256149224
573,경기도 수원시 팔달구 중부대로 249 (우만동),사암바른한의원,127.04333304803977,37.27523249699412
574,"대전광역시 서구 벌곡로 1379, 2층 (가수원동)",삼부한의원,127.3533612745407,36.304214549497644
575,경기도 수원시 장안구 정자천로 187 (정자동),삼성S메디의원,126.99544932186785,37.29656552596127
576,"경기도 수원시 팔달구 권광로 211, 동수원메디뷰 (인계동)",삼성공감정신건강의학과의원,127.033249036,37.2662794102
577,"경기도 수원시 영통구 광교로 191, 3층 (이의동, 이마트 광교점)",삼성드림소아청소년과의원,127.04695424833888,37.29635146476253
578,경기도 수원시 영통구 광교로 191 (이의동),삼성드림치과의원,127.04709945946658,37.296268572063525
579,경기도 수원시 영통구 삼성로 178-2 (매탄동),삼성리움치과의원,127.05780857498115,37.25891074238785
580,경기도 수원시 장안구 송원로 84 (조원동),삼성마취통증의학과의원,127.009894444444441,37.301958333333332
581,"경기도 수원시 권선구 금곡로 206, 303호 (금곡동, 우성메디피아2)",삼성바른아이치과의원,126.9543359445716,37.27404945569638
582,"경기도 수원시 영통구 효원로 397, 6층 1~3호 (매탄동, 중앙프라자)",삼성사랑정형외과의원,127.04516801634341,37.25905631198754
583,"경기도 수원시 영통구 센트럴타운로 107, 204동 2층 2-19호,2-20호 (이의동, 광교푸르지오 월드마크, 월드스퀘어)",삼성서울안과의원,127.048142075634,37.2926127634542
584,"경기도 수원시 영통구 매영로 150, 지하1층 (매탄동, 삼성전기)",삼성수원OK한의원,127.05526941826814,37.26449834169377
585,"경기도 수원시 영통구 삼성로168번길 5, 5층 (매탄동)",삼성스마트치과의원,127.03405555555557,37.26626944444443
586,"경기도 수원시 영통구 중부대로 248 (매탄동,3,4층)",삼성신경외과의원,127.04270815810733,37.27477047727879
587,"경기도 수원시 영통구 효원로 387, 5층호 (매탄동,풍성프라자)",삼성안과의원,127.04388866650922,37.25922437371174
588,"경기도 수원시 팔달구 효원로 269, 401호 (인계동, 에스팝타워)",삼성에스마취통증의학과의원,127.03107998038331,37.26224345355097
589,"경기도 수원시 권선구 덕영대로 1085, 2층 (세류동)",삼성웰치과의원,127.01094051248137,37.25442577828044
590,경기도 수원시 영통구 효원로 397 (매탄동),삼성이플러스치과의원,127.04517418993672,37.25906744960331
591,경기도 수원시 권선구 덕영대로 1085 (세류동),삼성정형외과의원,127.01095653089001,37.254429453893366
592,"경기도 수원시 영통구 인계로 216-1, 1층.2층 (매탄동)",삼성중앙내과의원,127.0411235832405,37.264940020464465
593,"경기도 수원시 영통구 삼성로 274, 수원팩토리월드 1층 117,118,119,120호 (원천동)",삼성치과의원,127.06432973215814,37.265557102312165
594,"경기도 수원시 영통구 중부대로 240, 3,4층 (매탄동)",삼성탑내과의원,127.0421390909755,37.2749735925135
595,"경기도 수원시 팔달구 동말로 84, 화서프라자 201호 (화서동)",삼성플란트치과의원,127.003253732578,37.2786202750451
596,"경기도 수원시 영통구 매영로310번길 87, 205호 (영통동, 동보신명아파트 상가)",삼성한의원,127.06395677127978,37.25077670721459
597,경기도 수원시 영통구 봉영로 1623 (영통동),삼성행복한내과의원,127.07453897650069,37.25597143681203
598,"경기도 수원시 장안구 대평로 128, 4층 401, 407호 (정자동, 파크프라자)",삼성힐정형외과의원,126.9913153328,37.29893021739999
599,"경기도 수원시 영통구 효원로 374 (매탄동,주공프라자  301호)",삼인당한의원,127.0422386781913,37.25890630928953
600,경기도 수원시 장안구 수성로245번길 40 (정자동),삼일한의원,126.9708801603,37.3054648733
601,"경기도 수원시 권선구 세권로195번길 20-3, 3층 302호 (권선동)",삼쾌한의원,127.02619292842,37.2562205907243
602,경기도 수원시 영통구 중부대로448번길 97 (원천동),상아치과의원,127.05943315339658,37.26650388340359
603,"경기도 수원시 팔달구 중부대로223번길 4 405호(우만동,상록블루하우스)",상쾌한유완진치과의원,127.04095670975528,37.276127174991615
604,경기도 수원시 권선구 금호로246번길 6 (탑동),상쾌한이비인후과의원,126.9757329974102,37.275316546674915
605,"경기도 수원시 장안구 이목로 24, 201호 (정자동, SK 스카이뷰 )",상현경희한의원,126.98480442602943,37.308537377920224
606,"경기도 수원시 권선구 세권로195번길 20-4, 2,3층 (권선동, 세륜빌딩)",새결의원,127.0261023504,37.2560453578
607,"경기도 수원시 영통구 봉영로 1605, 221호 (영통동, 모던타운)",새날치과의원,127.0734674642,37.254529710499995
608,"경기도 수원시 영통구 효원로 381, 302호 (매탄동, 새롬프라자)",새날한의원,127.04329403439934,37.25932041803672
609,"경기도 수원시 권선구 세류로 32, 302호 (세류동)",새론가정의학과의원,127.00728703368942,37.26185433143087
610,경기도 수원시 팔달구 갓매산로 38 (매산로2가),새롬의원,127.0056551166,37.2678805898
611,경기도 수원시 영통구 영통로 195 (망포동),새마음정신건강의학과의원,127.05596345599747,37.2451293457438
612,경기도 수원시 권선구 금호로 60 (호매실동),새서울내과의원,126.957952777777777,37.269741666666668
613,"경기도 수원시 영통구 영통로 195, 504-1,506,506-1,507,지하1층 108-1호 (망포동)",새솔외과의원,127.05580574931422,37.24524475100712
614,"경기도 수원시 권선구 호매실로218번길 126, 3층 (호매실동)",새솔치과의원,126.96089313289091,37.266093807616755
615,경기도 수원시 영통구 영통로 161 (망포동),새수원의원,127.05499904585953,37.241979169523326
616,"경기도 수원시 권선구 탑동로3번길 13, 2,4,5층 (탑동)",새수원탑의원,126.974515559,37.2688871484
617,"경기도 수원시 장안구 파장로 91, 201,202호 (정자동)",새연세정형외과의원,126.992149999999995,37.304502777777778
618,"경기도 수원시 영통구 반달로35번길 30, 315호, 316호, 317호 (영통동)",새움한의원,127.07746040642,37.2517808748298
619,"경기도 수원시 장안구 송원로 109-8, 수원 한일타운 분산상가1 301,302,303,312,313호 (조원동)",새이치과의원,127.01138339426342,37.304509206088916
620,경기도 수원시 권선구 경수대로 346 (권선동),새한신경외과의원,127.02297087599966,37.25731112936512
621,경기도 수원시 팔달구 동말로 48 (화서동),새현대연합의원,126.99931894430553,37.278613920428434
622,"대전광역시 서구 도안동로 3, 405호 (가수원동, 리더스프라자A동)",샘물한의원,127.35269919516726,36.30553946059651
623,"경기도 수원시 팔달구 권광로 181, 씨네파크 406호 (인계동)",생기한의원,127.032221016662,37.2637484872618
624,"경기도 수원시 팔달구 중부대로 43, 실로암메디칼 601호 (지동)",생명나무한의원,127.021777459049,37.2755757743238
625,"경기도 수원시 영통구 영통로 195, 402호 (망포동, 골든스퀘어)",생생한의원,127.0558012436235,37.24524835722441
626,"경기도 수원시 팔달구 효원로265번길 28, 3층 (인계동)",샤인빔의원,127.03162884316309,37.26327037374511
627,"경기도 수원시 팔달구 권광로 199, 602호 (인계동, 세영빌딩)",샤인유의원,127.0329059875,37.2655406517
628,"경기도 수원시 영통구 봉영로 1623, 213호 (영통동, 드림피아빌딩)",샬롬한의원,127.07473722218315,37.25581994030305
629,"대전광역시 서구 계백로1158번길 9, 세브란스의원 2층 (가수원동)",서강의원,127.35223937580275,36.30430076893551
630,"경기도 수원시 영통구 인계로220번길 6-3 (매탄동,미산빌딩401호)",서린한의원,127.04120758346752,37.264705477285794
631,경기도 수원시 권선구 매실로 70 (호매실동),서성은치과의원,126.95850398417056,37.268344748328644
632,"경기도 수원시 권선구 금곡로 106, 405호 (금곡동, 우성메디피아)",서수원미라클의원,126.94199656249957,37.27397196971081
633,"경기도 수원시 권선구 금호로 226, 4층 (탑동, 운영빌딩)",서수원치과의원,126.97489680335734,37.27515847473058
634,"경기도 수원시 장안구 정자천로 163 (정자동, 하나로빌딩)",서안과의원,126.99411863138285,37.294986845389644
635,"경기도 수원시 팔달구 권광로 181, 402호 (인계동)",서울N비뇨기과의원,127.032219777,37.2637495689
636,"경기도 수원시 영통구 영통로 195, 302호 (망포동, 골든스퀘어)",서울S치과의원,127.0558643258426,37.24520147431687
637,경기도 수원시 장안구 송원로 113 (조원동),서울S한의원,127.01182655218163,37.30440418826317
638,경기도 수원시 권선구 당진로31번길 15 (당수동),서울가정의학과의원,126.93969305143257,37.29183174430911
639,"경기도 수원시 권선구 덕영대로1201번길 36, 201호 (권선동)",서울건치과의원,127.02292777777778,37.25064722222223
640,"경기도 수원시 팔달구 권광로 191, 3층 (인계동)",서울나란이치과교정과치과의원,127.03263502893337,37.2646432888924
641,경기도 수원시 장안구 영화로 106 (정자동),서울내과의원,127.004752777777782,37.295658333333336
642,"경기도 수원시 영통구 영통로 115, 2층 (망포동, 신영통 알파빌딩)",서울다온치과의원,127.01982183679762,37.51566080977846
643,"경기도 수원시 팔달구 권광로 181, 씨네파크 501호 (인계동)",서울더리본치과의원,127.032221016662,37.2637484872618
644,경기도 수원시 팔달구 화양로 34 (화서동),서울도담치과의원,126.997094025833,37.2811877968465
645,"경기도 수원시 영통구 영통로 195, 골든스퀘어 6층 601호,605호 (망포동)",서울리더스내과의원,127.055799794469,37.2451815599677
646,"경기도 수원시 권선구 덕영대로 1088-1, 301호 (세류동)",서울마취통증의학과의원,127.01145889890437,37.253449012133025
647,경기도 수원시 영통구 영통로501번길 1-4 (영덕동),서울명문치과의원,127.0774443841,37.2634366865
648,"경기도 수원시 영통구 동수원로 316 207호 (매탄동, 임광아파트)",서울명의원,127.038335685677,37.2584379027054
649,경기도 수원시 장안구 경수대로994번길 23 2층 (송죽동),서울미래의원,127.02961497175306,37.275752116805265
650,"경기도 수원시 영통구 영통로154번길 60, 4층 301호 (망포동, 망포센트럴프라자)",서울미소치과의원,127.0590513055,37.2412888194
651,"경기도 수원시 영통구 봉영로 1606, 301호 (영통동, 미네시티)",서울미피부과의원,127.0744918604904,37.25387024917124
652,"경기도 수원시 권선구 금곡로 116, 205호 (금곡동, 유동타워)",서울바로치과의원,126.9430609796,37.2739040074
653,"경기도 수원시 팔달구 권광로 181, 씨네파크 305호 (인계동)",서울바른치과교정과치과의원,127.032219777,37.2637495689
654,"경기도 수원시 영통구 봉영로 1569, NEW WORLD PLAZA 4층 405호,406호 (영통동)",서울베스트내과의원,127.07102269696,37.2520637842978
655,경기도 수원시 영통구 센트럴타운로 98 (이의동),서울베스트치과의원,127.05067421993793,37.292093568452216
656,"경기도 수원시 영통구 중부대로 293-3, 4층 (원천동)",서울본정형외과의원,127.0475853163,37.2740306782
657,"경기도 수원시 권선구 금곡로212번길 14, 403,404호 (금곡동, 거성빌딩)",서울본치과의원,126.9536643236,37.2734400913
658,"경기도 수원시 팔달구 권광로 187 (인계동, 4층)",서울비뇨기과의원,127.03239751885542,37.264265040139264
659,"경기도 수원시 팔달구 중부대로 249, 4층 (우만동)",서울뿌리치과의원,127.043331244671,37.2752336689964
660,경기도 수원시 팔달구 정조로800번길 7 (팔달로1가),서울산부인과의원,127.01727920787554,37.27965786752922
661,"대전광역시 서구 도안동로 3, 5층 (가수원동, 리더스프라자)",서울삼성내과의원,127.35269919516726,36.30553946059651
662,경기도 수원시 장안구 덕영대로407번길 34-22 (율전동),서울삼성내과의원,126.96856799703028,37.30291515765616
663,경기도 수원시 영통구 동수원로 520 (매탄동),서울삼성의원,127.04759054060816,37.27300373898665
664,"경기도 수원시 권선구 동수원로177번길 40, 상가202호 (권선동, 수원아이파크시티8단지)",서울삼성치과의원,127.0301386496,37.2466915618
665,"경기도 수원시 권선구 매송고색로 526, 201, 202호 (오목천동)",서울삼성플러스내과의원,126.962882060237,37.2452109651178
666,"경기도 수원시 권선구 금곡로118번길 10, 일담타워 4~6층 (금곡동)",서울삼성호매실요양병원,126.9429575891,37.2734534373
667,"경기도 수원시 권선구 동수원로 232, 센터블스파 2층 172-1호 (권선동)",서울새봄플란트치과의원,127.034690950669,37.2502595331007
668,경기도 수원시 영통구 매영로 150 (매탄동),서울샘치과의원,127.05869262915948,37.26523558649725
669,경기도 수원시 영통구 영통로 124 (망포동),서울샤치과교정과치과의원,127.056579086,37.2388896407
670,"경기도 수원시 영통구 봉영로 1587 (영통동, 다모아프라자 4층)",서울샤치과의원,127.07233458871886,37.253326613842965
671,"경기도 수원시 권선구 효원로 274, 3층 (권선동, 유심빌딩)",서울샤플란트치과의원,127.0312267474,37.2614287498
672,"경기도 수원시 장안구 경수대로 940, 304호 (조원동)",서울선치과교정과치과의원,127.00779287355363,37.30292317939814
673,경기도 수원시 영통구 중부대로271번길 4 (원천동),서울성모안과병원,127.04577852948097,37.27468035276542
674,"경기도 수원시 장안구 화산로 87, 201호 (천천동, 정문상가)",서울소아청소년과의원,126.98244737029978,37.29171372714011
675,경기도 수원시 장안구 덕영대로535번길 34 (천천동),서울수석치과의원,126.98211678145972,37.29711990276813
676,"경기도 수원시 권선구 금곡로 106, 404호 (금곡동, 우성메디피아)",서울수치과의원,126.94199656249957,37.27397196971081
677,경기도 수원시 팔달구 중부대로 245,서울수치과의원,127.04286994565285,37.27538781477522
678,"경기도 수원시 팔달구 정조로 777, 4층 401, 402, 403호 (팔달로3가)",서울쎈정형외과의원,127.016104103108,37.2773438022056
679,"경기도 수원시 영통구 센트럴타운로 92, 3층 302호,303호 (이의동, 대림프라자)",서울아산재활의학과의원,127.05114220774153,37.291779667115584
680,"경기도 수원시 장안구 서부로 2125, 3층 (율전동)",서울아산플란트치과의원,126.971258333333338,37.297266666666665
681,경기도 수원시 영통구 봉영로 1605,서울아이정신과의원,127.07345095749261,37.254530444810754
682,"경기도 수원시 팔달구 중부대로239번길 5, 202호 (우만동)",서울아주치과의원,127.04211705371421,37.27592869536812
683,경기도 수원시 영통구 덕영대로 1525 (영통동),서울안과의원,127.05779463877718,37.24623856813481
684,경기도 수원시 영통구 영통로 195 (망포동),서울연치과의원,127.05583278086254,37.245219509549344
685,"경기도 수원시 권선구 경수대로 295, 2,4층 (세류동)",서울연합의원,127.0199920068,37.2533686457
686,경기도 수원시 영통구 영통로 151 (망포동),서울예인치과의원,127.05526877756244,37.24094464371119
687,"경기도 수원시 권선구 권광로 72, 3층 (권선동)",서울오로라치과의원,127.0291045956707,37.25417409159467
688,"경기도 수원시 장안구 만석로19번길 11-2 (천천동, 천경빌딩)",서울올바른치과교정과치과의원,126.983438743129,37.2960611061087
689,"경기도 수원시 영통구 에듀타운로 24, 201호 (이의동, 그린프라자)",서울올바른치과의원,127.05231056403464,37.285241222397445
690,경기도 수원시 팔달구 팔달로 159-1 (화서동),서울외과의원,127.00584264474818,37.282585202044785
691,"경기도 수원시 영통구 센트럴타운로 94, 302호 (이의동, 앤에스코어)",서울위즈소아청소년과의원,127.05091225646919,37.29194916135993
692,"경기도 수원시 영통구 인계로220번길 6-3, 2층 (매탄동, 미산빌딩)",서울이건치과의원,127.04127677570156,37.26469488761011
693,경기도 수원시 팔달구 권광로 187 (인계동),서울이비인후과의원,127.0324786454542,37.264160498882546
694,"경기도 수원시 권선구 금곡로 204, 302호 (금곡동, 세종타운721)",서울이하얀치과의원,126.9533439495,37.2737066735
695,"경기도 수원시 장안구 이목로 24, 상가3동 202호 (정자동)",서울자연치과의원,126.98508788039852,37.30683709059236
696,경기도 수원시 장안구 영화로 106 (정자동),서울재활의학과의원,127.004752777777782,37.295658333333336
697,"경기도 수원시 팔달구 덕영대로 695 화서동, 화서프라자 405호, 406호) (화서동)",서울정이비인후과의원,126.990330145052,37.2847185203821
698,"경기도 수원시 장안구 대평로 86, 402호 (정자동)",서울정형외과의원,126.99326589487874,37.2960067553315
699,경기도 수원시 영통구 덕영대로 1545 (영통동),서울정형외과의원,127.0599388612,37.2463053927
700,"경기도 수원시 권선구 금곡로 106, 우성메디피아 401,402호 (금곡동)",서울정형외과의원,126.94199656249957,37.27397196971081
701,경기도 수원시 장안구 경수대로 963 (송죽동),서울치과의원,127.005277777777778,37.303624999999997
702,"경기도 수원시 영통구 도청로18번길 26, 힐스테이트광교중앙역 301~311호, 347~349호, 351~355호 (이의동)",서울쿤스트치과의원,127.056868624932,37.2876402080675
703,경기도 수원시 권선구 금호로 226 (탑동),서울탑안과의원,126.97489680335734,37.27515847473058
704,"경기도 수원시 팔달구 권광로 200 (인계동,5층)",서울티플란트치과의원,127.03356419379221,37.26512598763437
705,경기도 수원시 영통구 봉영로 1590 (영통동),서울팀치과의원,127.07344478676953,37.25278243771918
706,"경기도 수원시 영통구 인계로 219 (매탄동, 삼성1차아파트 상가)",서울플란트치과의원,127.04135685894974,37.26558845960689
707,"경기도 수원시 장안구 덕영대로535번길 46, 해든타워 303호 (천천동)",서울하이치과의원,126.982696680698,37.2973039807316
708,경기도 수원시 팔달구 정조로 810 (팔달로1가),서울한의원,127.0168779536148,37.280411194620925
709,"경기도 수원시 장안구 송원로 81, 201호 (조원동, 메가플러스2차)",서울한치과의원,127.0092094734313,37.30214100238892
710,"경기도 수원시 권선구 금곡로 112, 이수프라자 301,302호 (금곡동)",서울훈플란트치과의원,126.9426144631,37.2739362292
711,"경기도 수원시 권선구 금호로 59-6, 1층, 지하1층 (금곡동)",서원정형외과의원,126.95798333333333,37.27043611111112
712,"경기도 수원시 권선구 동수원로242번길 6, 505호 (권선동, 나눔프라자)",서정민내과의원,127.03466446447496,37.2510372179168
713,"경기도 수원시 장안구 파장로 63, 2층 (정자동)",서정치과의원,126.992149999999995,37.304502777777778
714,"경기도 수원시 장안구 서부로2123번길 33 (율전동, 운화빌딩)",서준한의원,126.96920917734876,37.29831741730639
715,경기도 수원시 장안구 만석로 241 (송죽동),석문한의원,127.00296893342974,37.307483121929984
716,"경기도 수원시 팔달구 중부대로 145 (우만동, 뉴신아빌딩)",석치과의원,127.03222742148255,37.27846898351603
717,경기도 수원시 장안구 경수대로976번길 27 (송죽동),선내과의원,127.00428737655055,37.30586787602595
718,"경기도 수원시 영통구 인계로 239 (매탄동,성일프라자201호)",선재한의원,127.04486623298816,37.26459991997945
719,"경기도 수원시 영통구 덕영대로1555번길 46, 롯데크리닉상가 202호 (영통동)",선치과의원,127.06161754624392,37.248232766548995
720,"경기도 수원시 영통구 센트럴타운로 85, C106호,C107호,C108호 (이의동, 광교C1호반베르디움)",선한이웃치과의원,127.04987457014063,37.29023417017606
721,경기도 수원시 장안구 율전로101번길 11 (율전동),성균관한의원,126.96873241765584,37.298309140810716
722,경기도 수원시 장안구 서부로 2139 (율전동),성대안과의원,126.97183586234313,37.2993984034394
723,"경기도 수원시 팔달구 경수대로 568, 1층 (인계동)",성루카의원,127.03089011059205,37.276285208679944
724,경기도 수원시 영통구 반달로7번길 6 (영통동) ,성림제통마취과의원,127.07401987517862,37.25230198669622
725,"경기도 수원시 권선구 덕영대로1201번길 8, 101호 (권선동)",성모마취통증의학과의원,127.02265760132534,37.24960551980337
726,"경기도 수원시 권선구 금곡로 112, 이수프라자 304,305,306,308호 (금곡동)",성모수메디컬의원,126.93750705281492,37.27365135967198
727,경기도 수원시 영통구 덕영대로 1525 (영통동),성모수치과의원,127.05779463877718,37.24623856813481
728,경기도 수원시 팔달구 권광로 195 (인계동),성모안과의원,127.03283073423819,37.265018191571365
729,"경기도 수원시 권선구 경수대로302번길 32, 203호 (권선동, 성지상가)",성모의원,127.0221986627163,37.25301512503015
730,"경기도 수원시 영통구 중부대로 240, 2층.4층.5층 (매탄동)",성모정형외과의원,127.04207907985795,37.27494461642671
731,경기도 수원시 장안구 수성로 315 (정자동),성모척관병원,127.00646892519258,37.29206445455291
732,경기도 수원시 장안구 만석로159번길 48 (파장동),성모치과의원,126.996894444444450,37.303683333333332
733,경기도 수원시 권선구 삼천병마로1592번길 3 (오목천동),성모플러스이비인후과의원,126.96372890162607,37.244804257585336
734,경기도 수원시 권선구 세화로169번길 25 (서둔동),성심내과의원,126.99174936035901,37.266773543840024
735,경기도 수원시 장안구 송정로 108 (정자동),성심한의원,127.00898649968397,37.29523954684472
736,"대전광역시 서구 벌곡로1379번길 20, 2층 (가수원동)",성좌한의원,127.35242596714423,36.304199286582
737,경기도 수원시 팔달구 팔달로119번길 2 (화서동),성지내과의원,127.00353055555555,37.279377777777775
738,"경기도 수원시 팔달구 팔달로119번길 2, 성지메디칼센타 (화서동)",성지이비인후과의원,127.003693977734,37.2794302969772
739,경기도 수원시 팔달구 장안로 3 (화서동),성지정형외과의원,127.006941980991,37.285421972706864
740,경기도 수원시 권선구 구운로 32 (구운동),세란의원,126.97492055103783,37.277118433390044
741,"경기도 수원시 장안구 서부로 2139, 6017호 (율전동, 에스케이허브)",세란치과의원,126.97167199866356,37.29945335142544
742,경기도 수원시 팔달구 권광로276번길 4,세련치과의원,127.03609410665342,37.27165610479527
743,"경기도 수원시 권선구 세류로 32, 403호 (세류동)",세류센트럴한의원,127.007289175765,37.2618559531649
744,경기도 수원시 권선구 권선로 528 (세류동),세류인치과의원,127.009113467722,37.26323460187447
745,경기도 수원시 권선구 덕영대로 1083 (세류동),세류정형외과의원,127.01064995324431,37.25460608641368
746,경기도 수원시 권선구 정조로 452 (세류동),세류한의원,127.01273881791076,37.24960327169187
747,"경기도 수원시 영통구 중부대로448번길 100, 2층 205호.206호 (원천동, 원천주공종합상가)",세브란스가정의학과의원,127.05910873532298,37.26685724722843
748,경기도 수원시 장안구 송원로 81 (조원동),세브란스민치과의원,127.00920496029087,37.30212658621434
749,"경기도 수원시 영통구 봉영로 1590 (영통동, 밀레니엄프라자 309호)",세브란스산부인과의원,127.07344478676953,37.25278243771918
750,경기도 수원시 팔달구 정조로 764 (팔달로3가),세브란스피부과의원,127.0169175817542,37.2760970095081
751,"경기도 수원시 팔달구 인계로 52 (인계동,정현빌딩 202호)",세실치과의원,127.02331245194247,37.26911102409535
752,"경기도 수원시 장안구 파장로46번길 2, 2층 (파장동)",세원정형외과의원,126.99605769806271,37.30563351553162
753,"경기도 수원시 권선구 금곡로197번길 70, 1층 (금곡동)",세인트마리소아청소년과의원,126.9539337021123,37.27544411047904
754,"경기도 수원시 권선구 금곡로197번길 70, 1~5, 9층 (금곡동)",세인트마리여성병원,126.9539337021123,37.27544411047904
755,"경기도 수원시 영통구 봉영로 1606, 303호 (영통동, 미네시티)",세정치과의원,127.07449032662569,37.253869507589925
756,경기도 수원시 권선구 정조로413번길 68 (세류동),세종부부치과의원,127.012619444444439,37.248552777777775
757,"경기도 수원시 영통구 삼성로 176-1, 4층 (매탄동)",센텀치과의원,127.05779934762037,37.25862962360461
758,"경기도 수원시 권선구 권광로139번길 11, 101호 (권선동)",셀클리닉의원,127.03024040634487,37.26001630044811
759,"경기도 수원시 권선구 효원로256번길 7, 211호 (권선동, 지오베르크)",소리청보성한의원,127.02977484670053,37.261648978241084
760,경기도 수원시 권선구 하탑로 52 (탑동),소망가정의학과의원,126.97740171972862,37.269093171972266
761,경기도 수원시 팔달구 정조로 787 (팔달로2가),소문한의원,127.016386111111117,37.278325000000002
762,경기도 수원시 팔달구 정조로 784,소재현치과의원,127.01699166684486,37.277974586191455
763,"경기도 수원시 영통구 중부대로246번길 47, 2층 (매탄동)",소천한의원,127.04188855010996,37.27291192331621
764,"경기도 수원시 팔달구 권광로 165 (인계동, 기양빌딩)",소프트성형외과의원,127.03185404078958,37.26262516708725
765,경기도 수원시 팔달구 권광로 211 (인계동),속편한내과의원,127.03323711746248,37.266286740397845
766,"경기도 수원시 권선구 서수원로 515, 5층 (금곡동)",손덕희마취통증의학과의원,127.000480555555555,37.278936111111108
767,경기도 수원시 팔달구 중부대로 94 (인계동),손승협마취과의원,127.02695428191569,37.2765456277848
768,"경기도 수원시 영통구 봉영로 1606, 203호 (영통동, 미네시티)",손앤오의원,127.0744918604904,37.25387024917124
769,"경기도 수원시 권선구 동수원로177번길 40, 상가214,215,216호 (권선동, 수원아이파크시티8단지)",손앤정한의원,127.0301431551,37.2466843523
770,"경기도 수원시 팔달구 중부대로 11, 은파빌딩 3층 302호 (영동)",손정신건강의학과의원,127.017280555555558,37.277436111111108
771,경기도 수원시 팔달구 일월로22번길 3 (화서동),손한의원,126.98007165246515,37.28555745665549
772,경기도 수원시 영통구 태장로 84 (망포동),솔이비인후과의원,127.0557066109547,37.23900961095748
773,경기도 수원시 영통구 동수원로 524 (매탄동),송영민비뇨기과의원,127.0477890150823,37.27306493185779
774,경기도 수원시 영통구 중부대로 259 (원천동),송이비인후과의원,127.04453843700163,37.27497274478627
775,"경기도 수원시 권선구 금곡로 106, 303호 (금곡동, 우성메디피아)",송인당한의원,126.94199656249957,37.27397196971081
776,경기도 수원시 영통구 봉영로 1606 (영통동),송종훈내과의원,127.07447833412542,37.253870257507266
777,"경기도 수원시 권선구 서수원로47번길 11, 그린메디프라자 3층 301,302호 (오목천동)",수가정의학과의원,126.977843693121,37.2336125723228
778,경기도 수원시 장안구 송원로 81 (조원동),수담한의원,127.00952081280121,37.30246174813248
779,경기도 수원시 팔달구 매산로 11 (매산로1가),수메디의원,127.00272382048709,37.26744819353301
780,경기도 수원시 팔달구 경수대로 613 (지동),수병원,127.02987240891136,37.28032212886824
781,"경기도 수원시 장안구 수성로 253, 4층 (정자동)",수성한의원,127.00015337293945,37.28977599454347
782,"경기도 수원시 권선구 덕영대로1201번길 8, 3층 (권선동, 효림트윈타워)",수소아청소년과의원,127.02246821579739,37.24950824144591
783,경기도 수원시 권선구 서부로 1592 (고색동),수여성병원,126.97617403314882,37.25123016933935
784,"경기도 수원시 팔달구 권광로 184 (인계동, 캐슬타워 316,317,318,319)",수원 하늘토한의원,127.03297451802996,37.26377112098903
785,경기도 수원시 팔달구 권광로207번길 13 (인계동),수원21세기신경외과의원,127.03258765015563,37.26605624776131
786,경기도 수원시 장안구 대평로 74 (정자동),수원21세기치과의원,126.99385246540191,37.29501205731926
787,"경기도 수원시 장안구 수성로261번길 21-1, 1층 (정자동)",수원경희한의원,127.00029772749164,37.29067703243865
788,"경기도 수원시 장안구 만석로19번길 11-3, 302호 (천천동)",수원고은치과의원,126.983605555555556,37.295619444444448
789,경기도 수원시 장안구 송정로118번길 21 (조원동),수원기독의원,127.0107864477064,37.294828523427725
790,"경기도 수원시 팔달구 정조로 774, 3~4층 (팔달로3가)",수원김안과의원,127.0170170298,37.2770953478
791,경기도 수원시 권선구 경수대로 299 (세류동),수원다나음한방병원,127.020198844033,37.2537763328541
792,"경기도 수원시 영통구 대학로 56, 502호 (이의동)",수원메디휴제일내과의원,127.0451929847,37.3008285013
793,"경기도 수원시 팔달구 중부대로 20 (구천동, 2층, 4층)",수원모커리한방병원,127.01879507609756,37.27499011471625
794,"경기도 수원시 영통구 봉영로 1612, 401호 (영통동, 보보스프라자)",수원미르치과의원,127.074913888888887,37.254497222222220
795,경기도 수원시 영통구 봉영로 1612 보보스프라자 410호 (영통동),수원미치과의원,127.0750229789,37.254485485
796,"경기도 수원시 장안구 파장로 74, 303·304호 (파장동)",수원바로내과의원,126.992725378373,37.3062528541304
797,경기도 수원시 팔달구 매산로 37 (매산로2가),수원본치과의원,127.00541342038696,37.268518284603054
798,"경기도 수원시 팔달구 팔달로 115, 2층 (화서동)",수원본한의원,127.003564509848,37.2789891518354
799,경기도 수원시 장안구 서부로 2161 (율전동),수원봄치과의원,126.97236944444444,37.301322222222225
800,"경기도 수원시 장안구 정조로 926, 1층 (영화동, 보디가드)",수원북문한의원,127.01256321962731,37.290687165784874
801,경기도 수원시 팔달구 팔달로 24 (고등동),수원브이아이피요양병원,127.00107961825358,37.27097997368542
802,"경기도 수원시 팔달구 동말로 84, 화서프라자 403호 (화서동)",수원삼성안과의원,127.00312454706498,37.278975185136225
803,경기도 수원시 장안구 장안로 108 (정자동),수원삼성요양병원,127.00124057914955,37.293596389038825
804,경기도 수원시 팔달구 중부대로 37-1 (지동),수원삼성한의원,127.02094649544784,37.27547633907089
805,경기도 수원시 권선구 매송고색로721번길 3 (고색동),수원샘치과의원,126.9830540877445,37.25172881384247
806,경기도 수원시 팔달구 정조로 766 ,수원선치과의원,127.0168905885,37.2763997629
807,경기도 수원시 팔달구 덕영대로 923-10,수원성모안과의원,127.00194998280477,37.26598103470625
808,경기도 수원시 장안구 정조로 954 (영화동),수원성심내과의원,127.0117695582,37.2926046689
809,"경기도 수원시 영통구 동수원로 526, 신라빌딩 2층 (매탄동)",수원성심정신건강의학과의원,127.04947890991914,37.27308561134432
810,"경기도 수원시 권선구 금곡로197번길 18-24, 호매실애비뉴8번가 4~7층 (금곡동)",수원센트럴요양병원,126.95298254592315,37.27467605010889
811,"경기도 수원시 팔달구 중부대로39번길 6, 2층 (지동)",수원스마일치과의원,127.02143207139548,37.275487174992655
812,경기도 수원시 권선구 호매실로 22-50 (탑동),수원시권선구보건소,126.97112812016634,37.25874424014348
813,"경기도 수원시 장안구 정조로 941, 3층 301,302,320호 (영화동, 동성영화타운)",수원시민의료소비자생활협동조합수원시민의원,127.01188341791753,37.29138610325824
814,"경기도 수원시 장안구 정조로 941 (영화동, 동성영화타운)",수원시민의료소비자생활협동조합수원시민한의원,127.01188341791753,37.29138610325824
815,경기도 수원시 팔달구 팔달산로 6 (교동),수원시팔달구보건소,127.01253010359487,37.27148043643263
816,경기도 수원시 팔달구 정조로 777 (팔달로3가),수원신경정신과의원,127.0161060200314,37.27734416237125
817,"경기도 수원시 영통구 봉영로 1612, 204호 (영통동, 보보스프라자)",수원에버성형외과의원,127.07470881929756,37.25442515369621
818,"경기도 수원시 팔달구 덕영대로 907, 2,3층 (매산로1가)",수원역예쁨주의쁨의원,127.00050691613615,37.26766055990973
819,"경기도 수원시 팔달구 매산로 24, 201~205호 (매산로2가)",수원역정형외과의원,127.004248982224,37.2674953631913
820,경기도 수원시 권선구 매송고색로 671 (고색동),수원연세가정의원,126.97787173097127,37.25026507013249
821,경기도 수원시 장안구 정조로 946 (영화동),수원연세내과의원,127.01231077786012,37.29188738768646
822,경기도 수원시 팔달구 정조로 788 (팔달로2가),수원연세신경과의원,127.01697369818078,37.278327793447566
823,경기도 수원시 영통구 중부대로 268 (매탄동),수원영상의학과의원,127.04502362274125,37.2740352843488
824,"경기도 수원시 영통구 봉영로 1605, 222호 (영통동, 모던타운)",수원영통함소아한의원,127.073467464193,37.254529710480114
825,경기도 수원시 장안구 대평로90번길 16 (정자동),수원예치과의원,126.993674999999996,37.296297222222222
826,경기도 수원시 영통구 매영로 229 (원천동),수원요양병원,127.06482486290001,37.2608348501
827,경기도 수원시 권선구 장다리로 94 (권선동),수원우노병원,127.02161329322374,37.25855295102306
828,"경기도 수원시 팔달구 매산로 22 (매산로2가, 2층)",수원우리한의원,127.0039098534116,37.26741932697248
829,"경기도 수원시 권선구 권광로 68, 교연빌딩 1~2층 (권선동)",수원웰정형외과의원,127.02908648824036,37.2539866789641
830,경기도 수원시 팔달구 정조로 806 (팔달로1가),수원이안과의원,127.016805555555550,37.279991666666668
831,"경기도 수원시 팔달구 권광로 163, 보성빌딩 5층 (인계동)",수원인계늘푸른의원,127.0317457378,37.2624377794
832,"경기도 수원시 영통구 봉영로 1587, 10층, 4층 406호 (영통동, 다모아프라자)",수원자생한방병원,127.0723345887,37.2533266138
833,"경기도 수원시 권선구 동수원로 218-39, 305호 (권선동)",수원자연한의원,127.035958620244,37.2487535999438
834,"경기도 수원시 팔달구 덕영대로 691-12, 1~6층 (화서동)",수원제일산부인과의원,126.99070503147439,37.28511128214267
835,경기도 수원시 장안구 수성로 356 (영화동),수원중앙내과의원,127.01089896117014,37.2929687715029
836,경기도 수원시 권선구 권선로 654 (권선동),수원중앙병원,127.0228408488501,37.259913344591446
837,"경기도 수원시 팔달구 권광로 181, 6층 602호 (인계동, 씨네파크)",수원킹콩치과의원,127.03229817390465,37.26392627683136
838,경기도 수원시 팔달구 덕영대로 915-1 (매산로1가),수원탑비뇨기과의원,127.001563888888896,37.267077777777779
839,"경기도 수원시 영통구 매영로 85, 4층 (매탄동, 성일코아빌딩)",수원탑치과의원,127.05208370922577,37.268168758447594
840,경기도 수원시 장안구 경수대로 969 (송죽동),수원한국병원,127.00472840209738,37.30394379598728
841,"경기도 수원시 팔달구 정조로 853, 4층 (신풍동)",수원한의원,127.0157736802325,37.28413444161274
842,"경기도 수원시 팔달구 권광로 208, 인송빌딩 503-504호 (인계동)",수원항외과의원,127.033938258196,37.2658831165997
843,"경기도 수원시 장안구 장안로 243, w메디컬빌딩 (정자동)",수원행복한요양병원,127.1116618332,37.2543773098
844,경기도 수원시 장안구 송원로 57 (송죽동),수원효요양병원,126.9926683057,37.3038932178
845,"경기도 수원시 장안구 정자천로 187, 305호 (정자동, 롯데프라자)",수원휴플란트치과의원,126.99545834367925,37.296576338784135
846,"경기도 수원시 팔달구 권광로 163, 보성빌딩 302호 (인계동)",수의원,127.031744835484,37.2624367884503
847,"경기도 수원시 영통구 봉영로 1763, 한성프라자 501호 (영통동)",수이비인후과의원,127.081659795171,37.2664900976852
848,"경기도 수원시 팔달구 팔달문로163번길 49, 3층 (우만동)",수일의원,127.032312338856,37.2848684926994
849,경기도 수원시 장안구 수성로 263 (정자동),수정마취통증의학과의원,127.00132761169708,37.29018638436343
850,경기도 수원시 장안구 정자천로173번길 11-17 (정자동),순여성의원,126.9939832735823,37.295192271775164
851,"경기도 수원시 권선구 금곡로 205, 해피라움 3층 312호 (금곡동)",숨쉬는한의원,126.952960325252,37.2743274287064
852,"경기도 수원시 영통구 센트럴타운로 111, 301호,302호 (이의동, 광교서희스타힐스)",숨앤숲이비인후과의원,127.04913527105422,37.29254459729473
853,경기도 수원시 팔달구 장다리로 288 (인계동),쉬즈메디병원,127.02908980524339,37.274335813300226
854,"경기도 수원시 장안구 만석로19번길 25-10 (천천동, 롯데마트)",스마일100치과의원,126.98220406668518,37.29642715009572
855,"경기도 수원시 팔달구 권광로 205, 9층 (인계동, 삼성화재 수원사옥)",스마일라인치과교정과치과의원,127.032863888888883,37.265994444444445
856,"경기도 수원시 권선구 금곡로 205, 해피라움 5층 509, 510호 (금곡동)",스마일이비인후과의원,126.952960325252,37.2743274287064
857,"경기도 수원시 장안구 정조로 941, 310호 (영화동, 동성영화타운)",스마일치과의원,127.01190919498582,37.291281931265495
858,경기도 수원시 영통구 봉영로 1623 (영통동),스마일턱치과의원,127.07468769744025,37.25589565795817
859,경기도 수원시 장안구 덕영대로417번길 52-52 (율전동),스마트치과의원,126.96931671626996,37.30344516875551
860,경기도 수원시 권선구 동수원로146번길 9 (곡반정동),스마트치과의원,127.03098238394071,37.2432207888353
861,"경기도 수원시 팔달구 덕영대로 905 (매산로1가, 매산로1가, 아이메카 7층)",스위스의원,127.00052495205927,37.267855183518705
862,"경기도 수원시 장안구 대평로 80, 201,202호 (정자동, 정연메이져)",스타의원,126.99359076024544,37.295516617069126
863,"경기도 수원시 영통구 인계로 254, 203호 (매탄동, 효원상가)",승보한의원,127.0450237748207,37.26409888673063
864,경기도 수원시 팔달구 정조로 740 (중동),시민한의원,127.0168945856,37.2741039113
865,경기도 수원시 영통구 반달로 107 (영통동),시온여성병원,127.07663991246588,37.25274001571039
866,"경기도 수원시 영통구 덕영대로1556번길 16, E동 210호 (영통동, 디지털엠파이어빌딩)",시온치과의원,127.0591761315,37.2452641686
867,"경기도 수원시 팔달구 중부대로 11 (영동,2층)",시원한마취통증의학과의원,127.0181125985,37.2753723962
868,"경기도 수원시 팔달구 중부대로 11 (영동,2층)",시원한마취통증의학과의원,127.01773576624899,37.275166330995205
869,"경기도 수원시 권선구 동수원로242번길 20, 302호 (권선동, 태양프라자)",시카고연세치과의원,127.035449999999997,37.250319444444443
870,"경기도 수원시 영통구 반달로7번길 16, 401호 (영통동, e-폴리스)",신광한의원,127.07436441715262,37.252626897179155
871,"경기도 수원시 권선구 삼천병마로1598번길 48, 3~4층 (오목천동)",신뢰치과의원,126.9660069156,37.2461426828
872,경기도 수원시 권선구 세권로138번길 14 (세류동),신명한의원,127.01890613250802,37.25635308028144
873,"경기도 수원시 권선구 매송고색로 724 (고색동, 신병원)",신병원,126.98366845831441,37.25138058954988
874,경기도 수원시 권선구 효원로 90 (세류동),신성한의원,127.0116797788,37.2662835028
875,"경기도 수원시 권선구 서수원로 515, 2~4층 (금곡동)",신세계외과의원,126.9821353385,37.2949574161
876,경기도 수원시 장안구 덕영대로 559 (천천동),신세계의원,126.98213432377,37.2949560643995
877,"경기도 수원시 팔달구 동말로 69 (화서동,3층)",신수당한의원,127.00166591033351,37.278963130465115
878,경기도 수원시 영통구 태장로 84 (망포동),신영통부부한의원,127.05551527610412,37.23894779730524
879,"경기도 수원시 영통구 영통로 136, 센트럴타워 401호 (망포동)",신영통삼성내과의원,127.056241666666665,37.239622222222224
880,경기도 수원시 영통구 영통로 94 (망포동),신영통연세치과의원,127.05936597724445,37.23763109228098
881,"경기도 수원시 영통구 효원로 387, 401호 (매탄동, 풍성프라자)",신침경희한의원,127.04395065463116,37.25923697870242
882,"경기도 수원시 영통구 영통로 145, ICOOP수원영통센터 3,5층 301,501호 (망포동)",신통한의원,127.055353246061,37.2405576952647
883,경기도 수원시 팔달구 중부대로 130 (인계동),심규식내과의원,127.03039608455977,37.278018928081664
884,"경기도 수원시 영통구 광교호수공원로 277, B2-32~34호 (원천동, 광교중흥에스클래스)",심송치과의원,127.056777997528,37.2839417579058
885,"대전광역시 서구 도안동로 3, 리더스프라자에이 304,305호 (가수원동)",심안과의원,127.35269919516726,36.30553946059651
886,경기도 수원시 장안구 경수대로 1020 (송죽동),심종걸내과의원,127.00051436730189,37.30693894495559
887,"경기도 수원시 영통구 덕영대로 1549 (영통동, 동호빌딩)",쎈정형외과의원,127.06038700708828,37.24633461968818
888,경기도 수원시 팔달구 권광로 184 (인계동) ,씨si의원,127.03313525939231,37.263911503772206
889,"경기도 수원시 장안구 송원로 20, 별동 상가 2층 (송죽동, 수원 아너스빌 위즈)",아너스라인의원,127.006568042927,37.2970945810561
890,경기도 수원시 팔달구 정조로801번길 3,아름다운정신과의원,127.01617110364468,37.279513654743205
891,"경기도 수원시 영통구 봉영로 1569, 307호 (영통동, 뉴월드프라자)",아름다운턱치과의원,127.07092809888269,37.25189011139567
892,"경기도 수원시 영통구 봉영로 1590 (영통동, 밀레니엄프라자 304호)",아름다운피부과의원,127.07341752549465,37.25256260133029
893,"경기도 수원시 팔달구 동말로 84, 4층 (화서동)",아름다운한의원,127.00323841696107,37.27860665674292
894,"경기도 수원시 영통구 봉영로 1606, 2층 207호 (영통동)",아름다운향기유외과의원,127.07449032662569,37.253869507589925
895,경기도 수원시 팔달구 권광로 197 (인계동),아름미한의원,127.03297513728542,37.26525963063656
896,"경기도 수원시 팔달구 권광로 181, 씨네파크 201, 501호 (인계동)",아름본재활의학과의원,127.0322197770336,37.26374956886027
897,"경기도 수원시 팔달구 권광로 178 (인계동, 센타빌딩 1동 401호)",아비쥬의원,127.03306283129143,37.26327719031629
898,"경기도 수원시 팔달구 권광로 208, 인송빌딩 302호 (인계동)",아산드림가정의학과의원,127.0339388217,37.265882756
899,경기도 수원시 장안구 파장로68번길 34 (파장동),아산참조은의원,126.992591666666669,37.307375000000000
900,"경기도 수원시 권선구 금호로 226, 3층 (탑동)",아산탑내과의원,126.97489680335734,37.27515847473058
901,"경기도 수원시 영통구 봉영로 1587, 7층 703-1호 (영통동, 다모아프라자)",아이누리한의원,127.0723000936043,37.25334177027313
902,"경기도 수원시 권선구 매실로 70, 상가 301동 2층 207호 (호매실동, 호매실GS아파트)",아이들소아청소년과의원,126.95843180508004,37.26838797173829
903,"경기도 수원시 장안구 덕영대로535번길 38 (천천동, 로얄프라자 3층)",아이러브소아청소년과의원,126.9824145201,37.2971812179
904,경기도 수원시 영통구 태장로 83 (망포동),아이사랑의원,127.05530562513351,37.239316146981885
905,경기도 수원시 영통구 중부대로 259 (원천동),아이사랑치과의원,127.04448429183232,37.2749295148513
906,"경기도 수원시 권선구 덕영대로1201번길 36, 2층 (권선동, 웰스톤프라자)",아이앤누리소아청소년과의원,127.02308424869532,37.25076947237953
907,"경기도 수원시 영통구 영통로 237, 에이스 하이엔드 타워 영통 B1-105~113호 (신동)",아이오라여성의원,127.057004448305,37.2486678487986
908,"경기도 수원시 권선구 금곡로 116, 303호 (금곡동, 유동타워)",아이온연합소아청소년과의원,126.94317590267936,37.27388855721575
909,"경기도 수원시 영통구 봉영로 1587, 501호 (영통동, 다모아프라자)",아이조아패밀리한의원,127.07225277777778,37.25332777777778
910,"경기도 수원시 영통구 광교호수공원로 277, 2층 2F-001, 002호 (원천동, 광교중흥에스클래스)",아인성모이비인후과의원,127.056777997528,37.2839417579058
911,"경기도 수원시 팔달구 권광로 159, 4층 1호 (인계동)",아임스타의원,127.031590484514,37.2621216451039
912,경기도 수원시 장안구 수성로 356 (영화동),아임치과의원,127.01090021012236,37.29296839538744
913,"경기도 수원시 팔달구 덕영대로 899, 세진브론즈빌 204,205호 (매산로1가)",아주가정의학과의원,127.00052946135801,37.26788041252237
914,경기도 수원시 팔달구 중부대로 245 (우만동),아주굿정형외과의원,127.0428685997489,37.27539485335927
915,"경기도 수원시 장안구 정자천로 187 (정자동, 롯데프라자 4층)",아주다남병원,126.99543127622282,37.2965691291563
916,경기도 수원시 영통구 월드컵로 164 (원천동),아주대학교병원,127.04752107106702,37.2794477573662
917,"경기도 수원시 영통구 효원로 363 (매탄동, 303상가 B202호, 203호)",아주맑은소아청소년과의원,127.039523873,37.2615343959
918,"경기도 수원시 권선구 동수원로242번길 22, 센타프라자 2층 (권선동)",아주바른내과의원,127.035749001,37.2507194718
919,"경기도 수원시 영통구 광교중앙로 55, 광교두산위브 201,202호 (원천동)",아주사랑한의원,127.05088663946115,37.280704209775806
920,경기도 수원시 장안구 정조로934번길 35-2 (영화동),아주성모의원,127.01446832247143,37.29187961342209
921,경기도 수원시 영통구 중부대로 264 (매탄동),아주웰이비인후과의원,127.04446132800625,37.27420148817712
922,"경기도 수원시 팔달구 아주로 3, 2층 (우만동, 대학빌딩)",아주탑치과의원,127.04382458412335,37.27512058704109
923,"경기도 수원시 팔달구 팔달로 117 (화서동,2층)",아주편한내과의원,127.00359631861765,37.279143318736566
924,"경기도 수원시 장안구 경수대로 1111 (파장동, 경기도건축사회관)",아주편한병원,126.99211126450318,37.30463504410028
925,경기도 수원시 장안구 수성로 253 6층 (정자동),아주프라임안과의원,127.00021341090502,37.289847589704955
926,경기도 수원시 장안구 송원로 83,아주하나내과의원,127.00952081280121,37.30246174813248
927,경기도 수원시 장안구 송원로 83 (조원동),아주하나영상의학과의원,127.00943056159804,37.30229596483043
928,"경기도 수원시 영통구 중부대로 250-1, 2층 201호 (매탄동, 신호빌딩)",아주한의원,127.0431117099263,37.27463068279561
929,"경기도 수원시 영통구 봉영로 1612, 503호 (영통동)",아해한의원,127.07499594925573,37.25448909287729
930,"경기도 수원시 영통구 봉영로 1612 (영통동, 보보스프라자407호)",안경모재활의학과의원,127.07496587110211,37.254475452552775
931,경기도 수원시 권선구 세권로195번길 13 (권선동),안기우안과의원,127.02526093709835,37.2556888269164
932,경기도 수원시 영통구 태장로 87 (망포동),압구정스마일치과의원,127.05563026258301,37.23940970710388
933,경기도 수원시 팔달구 권광로 191 (인계동),압구정집성형외과의원,127.03261863119504,37.26463260453245
934,"경기도 수원시 장안구 만석로19번길 11-8, 401호 (천천동, 골든프라자)",압구정코아지앤미의원,126.9831907522,37.2959703367
935,"경기도 수원시 영통구 동수원로 520, 영주빌딩 2층 (매탄동)",앙상블여성의원,127.0476162305,37.2729890628
936,"경기도 수원시 영통구 반달로7번길 6, 센타프라자 3층 305호 (영통동)",애플의원,127.07404851000933,37.252317134497716
937,경기도 수원시 권선구 탑동로 1 (호매실동),애플치과의원,126.97517594412119,37.26901279148704
938,경기도 수원시 팔달구 권광로 195 (인계동),앤더슨비뇨기과의원,127.032650000000004,37.264838888888889
939,경기도 수원시 팔달구 권광로 195 (인계동),앤더슨이비인후과의원,127.03268189397429,37.264949752197246
940,"경기도 수원시 영통구 광교호수공원로 80, A동 210,211호 (원천동, 광교아이파크)",앨리소아청소년과의원,127.0612634687299,37.273087307766374
941,경기도 수원시 팔달구 세지로 393 (우만동),약손한의원,127.02811190867885,37.28515563988418
942,경기도 수원시 권선구 매실로69번길 14 (호매실동),양동준치과의원,126.95802537235123,37.26936814845579
943,"경기도 수원시 권선구 매송고색로 526, 3층 302호 (오목천동)",양지메디컬의원,126.96148995677939,37.24530873448913
944,경기도 수원시 장안구 하률로12번길 86 (천천동),양지한의원,126.97739353785718,37.300971061798954
945,경기도 수원시 장안구 파장로 80 (파장동),어진한의원,126.99230712046952,37.30644852021912
946,"경기도 수원시 장안구 장안로 226, 동신종합상가 1층 30,31,32호 (정자동)",엄마마음소아청소년과의원,126.98373814365365,37.295472298372204
947,"대전광역시 서구 도안동로 3, 4층 403호 (가수원동)",엄재활의학과의원,127.35269919516726,36.30553946059653
948,경기도 수원시 권선구 동수원로 220 (권선동),에덴메디여성병원,127.0339603929434,37.24934346304016
949,경기도 수원시 권선구 동수원로 220 (권선동),에덴엔도내과의원,127.03402157340382,37.24934318507099
950,경기도 수원시 팔달구 동말로 71 (화서동),에스더의원,127.00188982526433,37.27895269831127
951,경기도 수원시 팔달구 권광로 178 (인계동),에스안과의원,127.03292021237135,37.263306201273316
952,"경기도 수원시 팔달구 권광로 195, 6층 (인계동, 학산빌딩)",에스와이바른피부과의원,127.0326847639,37.2649460253
953,"경기도 수원시 권선구 금곡로 206, 호매실우성메디피아2 304호, 4~5층 (금곡동)",에스제이삼성요양병원,126.95415561335318,37.273934052807014
954,"경기도 수원시 영통구 광교호수공원로 277, 218,219호 (원천동, 중흥 S-클래스)",에스클래스치과의원,127.056777997528,37.2839417579058
955,경기도 수원시 팔달구 권광로 146 (인계동),에이블청아치과의원,127.031666666666666,37.260352777777776
956,경기도 수원시 장안구 대평로 72 (정자동),에이스치과의원,126.99395489954838,37.29480363150289
957,"경기도 수원시 권선구 동수원로177번길 40, 상가209,210호 (권선동, 수원아이파크시티8단지)",에코이비인후과의원,127.0301431551,37.2466843523
958,"경기도 수원시 장안구 만석로19번길 41-9, 401호 (천천동)",엔젤아이치과의원,126.98271687941657,37.29676678536186
959,"경기도 수원시 영통구 봉영로 1590, 301,302-1,302-2호 (영통동, 밀레니엄프라자)",엘앤케이미래안과의원,127.07318326714329,37.25276817971389
960,"경기도 수원시 팔달구 권광로 187 (인계동,4층)",엘치과의원,127.03246515264281,37.2642470017752
961,"경기도 수원시 영통구 광교중앙로 145, 광교엘포트아이파크 205호 (이의동)",엘포트봄봄이비인후과의원,127.057781422092,37.2870876096225
962,"경기도 수원시 영통구 광교중앙로 145, 광교엘포트아이파크 2층 (이의동)",엘포트해피치과의원,127.057781422092,37.2870876096225
963,"대전광역시 서구 계백로 1135, 8층 (가수원동)",엠케이치과의원,127.349497058183,36.3047651958663
964,"경기도 수원시 팔달구 권광로 184, 3층 304호 (인계동, 캐슬타워)",여덟한의원,127.0331352594,37.2639115038
965,"경기도 수원시 팔달구 경수대로 718, 2층 (우만동)",여인담한의원,127.0259062764043,37.28914243285715
966,경기도 수원시 장안구 월드컵로428번길 10 (연무동),연무제일의원,127.0259767078465,37.29396097701338
967,"경기도 수원시 장안구 연무로 53 (연무동, 한동빌딩)",연상한의원,127.02557118575906,37.295481999413255
968,"경기도 수원시 팔달구 권광로 200, 2층 (인계동)",연세88정형외과의원,127.033564193032,37.2651242756443
969,"경기도 수원시 영통구 도청로89번길 23, 301,302호 (이의동, 월드프라자)",연세광교정형외과의원,127.04779020232047,37.28973763430892
970,"경기도 수원시 영통구 센트럴타운로 85, 지하1층 병원코너(치과)호 (이의동, 광교C1 호반베르디움, Summit Place광교)",연세광교치과의원,127.050470929016,37.2915676707273
971,"경기도 수원시 권선구 동수원로 232, 214-215호 (권선동, 롯데마트3층)",연세굿바디의원,127.0346892594,37.2502584524
972,"경기도 수원시 영통구 영통로 136 (망포동, 신영통센트럴타워 405호)",연세꿈스의원,127.056241666666665,37.239622222222224
973,"경기도 수원시 영통구 월드컵로179번길 7, 201호 (원천동)",연세나눔의원,127.045970660822,37.2783735191942
974,"경기도 수원시 영통구 봉영로 1623 (영통동, 드림피아, 309호)",연세내과의원,127.074808333333337,37.255941666666665
975,경기도 수원시 장안구 서부로 2123 (율전동),연세내과의원,126.970841666666672,37.298097222222225
976,"경기도 수원시 장안구 정자로 164, 가동 1층 (정자동)",연세두리마취통증의학과신경과의원,126.993413410011,37.3054316904077
977,"경기도 수원시 장안구 송원로 81, 203호 (조원동)",연세류내과의원,127.00920947600298,37.302166231207764
978,경기도 수원시 영통구 효원로 387 (매탄동),연세림치과의원,127.0439072256338,37.25923370062597
979,"경기도 수원시 영통구 영통로153번길 98, 국제프라자 (망포동)",연세마리소아청소년과의원,127.049907656258,37.2414153879397
980,"경기도 수원시 권선구 금곡로102번길 15, 312~316호 (금곡동, 비즈웍스)",연세맑은피부과의원,126.94185260488127,37.273499753835246
981,경기도 수원시 영통구 봉영로1759번길 41 (영통동),연세모아요양병원,127.08057002600613,37.26711517194364
982,경기도 수원시 권선구 세권로304번길 62 (권선동),연세바른안과의원,127.03530856963972,37.249631417844945
983,"경기도 수원시 팔달구 월드컵로321번길 34-19, 2층 (우만동)",연세바른의원,127.031419613132,37.2866155769809
984,경기도 수원시 장안구 경수대로 965 (송죽동),연세밝은아이치과의원,127.00497429589123,37.30394198383579
985,"경기도 수원시 영통구 광교중앙로 145, 광교엘포트아이파크 2층 (이의동)",연세본정형외과의원,127.057781422092,37.2870876096225
986,"경기도 수원시 영통구 덕영대로1556번길 16, 디지털엠파이어빌딩 C동 2층 207호 208호 (영통동)",연세브이의원,127.059176131052,37.2452635378131
987,경기도 수원시 권선구 세권로 124 (세류동),연세비엠정형외과의원,127.017836111111109,37.257075000000000
988,경기도 수원시 영통구 중부대로 333 (원천동),연세산부인과의원,127.052250000000001,37.273630555555556
989,"경기도 수원시 영통구 광교중앙로 254, 드림타워3 304호,305호404호,405호 (하동)",연세새빛치과의원,127.067740416354,37.2925337897192
990,경기도 수원시 장안구 창훈로52번길 2 (연무동),연세세브란스의원,127.03022864211301,37.29696420468427
991,"경기도 수원시 권선구 금호로 244, 2층 (탑동)",연세소망치과의원,126.97676571617491,37.27558347288117
992,"경기도 수원시 권선구 호매실로218번길 126, 3층 (호매실동)",연세소아청소년과의원,126.96089313289091,37.266093807616755
993,"경기도 수원시 영통구 중부대로448번길 106, 선우빌딩 3층 (원천동)",연세소아청소년과의원,127.058766666666671,37.266649999999998
994,"경기도 수원시 장안구 대평로 80, 208호 (정자동)",연세소울정신건강의학과의원,126.9936210039,37.2955352564
995,"경기도 수원시 장안구 만석로 206, 2~5층,6(일부)층 (송죽동)",연세수요양병원,127.0014843975,37.3044737028
996,경기도 수원시 장안구 정자천로 179 (정자동),연세수치과교정과치과의원,126.99509746283672,37.29626636541916
997,"경기도 수원시 팔달구 중부대로 43, 5층 (지동)",연세스토리치과의원,127.0217838812,37.275559194
998,"경기도 수원시 영통구 덕영대로 1400, 2층 204호,205호,206호 (망포동, 영통아이파크캐슬2단지)",연세슬기로운소아청소년과의원,127.041455112184,37.2418307867769
999,"경기도 수원시 팔달구 권광로 146, 벽산그랜드코아 5층 (인계동)",연세신경과의원,127.0318576393,37.2604626641
1000,"경기도 수원시 팔달구 인계로 52, 제2용신빌딩 201호 (인계동)",연세신통의원,127.02328375322679,37.26907141415088
1001,"경기도 수원시 영통구 영통로 195, 501호 (망포동, 골든스퀘어)",연세씨앤에스재활의학과의원,127.05618894496612,37.24523376223812
1002,경기도 수원시 팔달구 덕영대로 923-10 (매산로1가),연세씨앤에스피부과의원,127.00153961701592,37.26589814032086
1003,"경기도 수원시 권선구 동수원로 232, 3층 (권선동)",연세아이웰소아청소년과의원,127.03468925944415,37.250258452353876
1004,"경기도 수원시 영통구 태장로82번길 32, 207호 (망포동, 망포마을 동수원 엘지빌리지)",연세아트치과의원,127.05471373713414,37.23739539934066
1005,"경기도 수원시 영통구 봉영로 1606 (영통동, 미네시티 302호)",연세안과의원,127.07442662929711,37.25383889870786
1006,경기도 수원시 장안구 경수대로 940 (조원동),연세안과의원,127.00780640540424,37.30288353339712
1007,"경기도 수원시 영통구 덕영대로 1515, 2층 (영통동)",연세앤치과의원,127.056652044011,37.246173746311
1008,"경기도 수원시 영통구 매영로 84, 상가동 201,203,204호 (매탄동, 한국아파트)",연세에이치의원,127.04936450416771,37.268342887345675
1009,경기도 수원시 장안구 수성로 341 (정자동),연세엘림요양병원,127.0093077822462,37.292957698632975
1010,"경기도 수원시 장안구 파장로 74, 204,205호 (파장동)",연세엘의원,126.992725378373,37.3062528541304
1011,"경기도 수원시 영통구 봉영로 1590, 밀레니엄 프라자 310호 (영통동)",연세영의원,127.0734477377373,37.252767268050945
1012,"경기도 수원시 권선구 금곡로 219, 리더스빌딩 204호 (금곡동)",연세원플란트치과의원,126.954079196941,37.2750009452322
1013,"경기도 수원시 영통구 센트럴타운로 111, 광교스타힐스 오피스텔 303-2, 304호 (이의동)",연세웰키즈치과의원,127.05372283468193,37.285835275455675
1014,경기도 수원시 팔달구 팔달문로93번길 4 (지동),연세의원,127.02645060483658,37.280968004061855
1015,경기도 수원시 장안구 파장로 82 (파장동),연세이비인후과의원,126.9920555428685,37.306570333267366
1016,"경기도 수원시 권선구 서수원로 519, 202호 (금곡동, 성광프라자)",연세이비인후과의원,126.9594917691,37.2724438756
1017,"경기도 수원시 권선구 덕영대로 1093, 3층 (세류동, 가림빌딩)",연세이사랑치과의원,127.01160326262556,37.25407251729136
1018,"경기도 수원시 장안구 파장로 74, 302호 (파장동)",연세이편한치과의원,126.99237027665097,37.306362037308524
1019,경기도 수원시 권선구 수인로 169 (서둔동),연세정형외과의원,126.98054076320776,37.27520576768783
1020,경기도 수원시 팔달구 팔달로119번길 2 (화서동),연세제일정형외과의원,127.00369397781777,37.279432008963134
1021,"경기도 수원시 영통구 광교호수공원로 277, B2층 24~27호 (원천동, 중흥 S-클래스)",연세진내과의원,127.056777997528,37.2839417579058
1022,"경기도 수원시 영통구 영통로 115 (망포동, 알파빌딩 301호)",연세참빛안과의원,127.05701305772644,37.23785567605388
1023,경기도 수원시 팔달구 정조로801번길 3 (팔달로2가),연세치과의원,127.01635905447294,37.27947779030789
1024,"경기도 수원시 권선구 세화로 134 , 2층 (서둔동)",연세패밀리의원,126.99712039873262,37.26416807189601
1025,"경기도 수원시 팔달구 권광로 199 (인계동,세영빌딩5층)",연세플러스의원,127.0329059875231,37.26554065169099
1026,경기도 수원시 장안구 경수대로 979 (송죽동),연세플러스치과의원,127.00371432967268,37.304624468371635
1027,"경기도 수원시 권선구 권선로 532, 2층 (세류동)",연세한사랑의원,127.0096861481,37.26314445220001
1028,"경기도 수원시 권선구 삼천병마로1598번길 32, 302호 (오목천동, 대유빌딩)",연세해맑은소아청소년과의원,126.96509896429409,37.24573095371224
1029,"경기도 수원시 권선구 경수대로 411, 2층 (권선동)",연세현플란트치과의원,127.02470388211,37.2632467919993
1030,경기도 수원시 영통구 봉영로 1606 (영통동),연우치과의원,127.07466775202224,37.25392059867479
1031,"경기도 수원시 권선구 금호로 230, 5층 (탑동, 참클리닉빌딩)",연합치과의원,126.97529103429171,37.27524797108983
1032,경기도 수원시 장안구 대평로 128 (정자동),열린서울치과의원,126.99130759653411,37.29890791922296
1033,경기도 수원시 권선구 삼천병마로 1581 (오목천동),열린의원,126.96338864826727,37.243882081328785
1034,"경기도 수원시 장안구 장안로75번길 42, 2층 (정자동)",염기룡한의원,127.00052778815892,37.2904643866406
1035,"경기도 수원시 팔달구 권광로 146, 벽산그랜드코아 309호 (인계동)",영신한의원,127.03185763930761,37.26046266409688
1036,경기도 수원시 장안구 연무로 53 (연무동),영양산부인과의원,127.02564789583636,37.29553964973155
1037,경기도 수원시 영통구 봉영로1770번길 21 (영통동),영연세치과의원,127.08303681903675,37.267163956980156
1038,"경기도 수원시 영통구 효원로 381, 4층 401호.402호 (매탄동, 새롬프라자16차)",영통9정형외과의원,127.04331040546863,37.25932371474517
1039,"경기도 수원시 영통구 청명남로 30, 402호 (영통동, 거성빌딩)",영통경희한의원,127.07552335054116,37.252094684778676
1040,경기도 수원시 영통구 영통로 396 (영통동),영통구보건소,127.07406001066478,37.25643503444546
1041,"경기도 수원시 영통구 봉영로 1763, 4층 (영통동, 한성프라자)",영통민치과의원,127.052838888888886,37.247663888888887
1042,경기도 수원시 영통구 영통로214번길 8 (영통동),영통바른치과의원,127.0575718963,37.2462164627
1043,"경기도 수원시 영통구 봉영로 1569 (영통동,뉴월드프라자 206호)",영통베스트덴치과의원,127.0710258682576,37.25205872306345
1044,경기도 수원시 영통구 영통로 460 (영통동),영통서울치과의원,127.07874106848124,37.260174805794556
1045,"경기도 수원시 영통구 덕영대로 1525, 4층 (영통동)",영통성모이비인후과의원,127.05786229332335,37.246278181619154
1046,경기도 수원시 영통구 덕영대로 1525 (영통동),영통성모정형외과의원,127.0578081450154,37.246213332658265
1047,경기도 수원시 영통구 덕영대로 1503 (영통동),영통세종신경외과의원,127.05523647435757,37.24609863722962
1048,경기도 수원시 영통구 덕영대로 1503 (영통동),영통수의원,127.05523647435757,37.24609863722962
1049,"경기도 수원시 영통구 영통로154번길 74, 101호 (망포동)",영통아이언성형외과의원,127.05969699363,37.2413127338037
1050,"경기도 수원시 영통구 영통로154번길 74, 101호, 102호일부호 (망포동)",영통아이언소아청소년과의원,127.05970498487612,37.24129930420788
1051,"경기도 수원시 영통구 봉영로 1623, 4층 411호 (영통동, 드림피아빌딩)",영통에스통증의학과의원,127.07473584312541,37.255934544244866
1052,경기도 수원시 영통구 영통로90번길 4-2 (망포동),영통연세가정의학과의원,127.06008252580324,37.23737844912453
1053,경기도 수원시 영통구 영통로214번길 9 (영통동),영통이편한치과의원,127.05766864876308,37.246566605672754
1054,"경기도 수원시 영통구 영통로 136, 센트럴타워 207호 (망포동)",영통주니어치과의원,127.0563832068232,37.239575151753165
1055,"경기도 수원시 영통구 반달로7번길 6, 204호 (영통동, 센터프라자)",영통하나치과의원,127.0740198752,37.2523019867
1056,"경기도 수원시 영통구 봉영로 1569, 407호 (영통동, 뉴월드프라자)",영통한의원,127.07102134299241,37.25206234345055
1057,"경기도 수원시 영통구 영통로90번길 4-16, 2층~5층 (망포동)",영통효요양병원,127.0608427064,37.2377882508
1058,경기도 수원시 장안구 송정로90번길 3 (정자동),예닮치과의원,127.00724187942548,37.295484306129545
1059,경기도 수원시 영통구 효원로 363 (매탄동),예림치과의원,127.04191432587095,37.25947227089104
1060,"경기도 수원시 권선구 매송고색로711번길 2, 2층 (고색동, 광성빌딩)",예부부한의원,126.98229889796744,37.25150565147411
1061,"경기도 수원시 영통구 봉영로 1623, 드림피아빌딩 205호 (영통동)",예쁜미소치과교정과치과의원,127.07473584312541,37.255934544244866
1062,"경기도 수원시 권선구 권중로 99, 205호 (권선동, 벽산한성아상가)",예인치과의원,127.02902407120545,37.24995181935473
1063,"경기도 수원시 영통구 봉영로 1606, 201호 (영통동, 미네시티)",예일의원,127.07449032662569,37.253869507589925
1064,경기도 수원시 팔달구 정조로 767-3 (팔달로3가),예치과의원,127.01638546581276,37.27647552127632
1065,"경기도 수원시 권선구 호매실로90번길 98, 2층 206호,207호 (호매실동)",예현한의원,126.963891671858,37.2601427452511
1066,"경기도 수원시 영통구 매영로310번길 87, 2층 201호 (영통동, 동보.신명아파트상가)",오내과의원,127.063991666666666,37.250630555555553
1067,경기도 수원시 팔달구 권광로 200 (인계동),오라클피부과의원,127.03362895075878,37.26511889363329
1068,경기도 수원시 팔달구 덕영대로 905 (매산로1가),오앤지산부인과의원,127.00052946135801,37.26788041252237
1069,경기도 수원시 권선구 경수대로 358 (권선동),오월희망의원,127.02344912335815,37.25832380622419
1070,"경기도 수원시 영통구 중부대로 259, 5층 502호 (원천동, 예스프라자)",오은영의원,127.0445596528,37.2749905628
1071,"경기도 수원시 장안구 송원로 81, 4층 (조원동, 메가플러스)",오이비인후과의원,127.00945762637491,37.30224550537925
1072,"경기도 수원시 영통구 영통로214번길 8, 4층 (영통동)",오체안피부과의원,127.0575718963,37.2462164627
1073,"경기도 수원시 팔달구 중부대로 43, 2층 (지동)",오케이내과외과의원,127.0217838812,37.275559194
1074,경기도 수원시 팔달구 일월로22번길 22-5 (화서동),오케이부부치과의원,126.98139033942051,37.285823682680544
1075,경기도 수원시 팔달구 매산로 11 (매산로1가),오케이정형외과의원,127.00286544099518,37.26748034947358
1076,경기도 수원시 장안구 조원로 76 (조원동),옥돌치과의원,127.016866666666672,37.300183333333337
1077,"경기도 수원시 팔달구 중부대로143번길 29 (우만동, 우암빌딩)",온누리치과의원,127.032070040356,37.27965117923674
1078,경기도 수원시 권선구 덕영대로1201번길 8 (권선동),온누리한의원,127.02241886351145,37.24948559853759
1079,"경기도 수원시 영통구 봉영로1770번길 21, 115호 (영통동, 한국신명아파트상가동)",온한의원,127.08275717862051,37.26712089955399
1080,"경기도 수원시 팔달구 세지로 394, 2층 (우만동)",올리브경희한의원,127.0284262745,37.2848565148
1081,"경기도 수원시 장안구 경수대로 950, 237,238호 (조원동)",올리브치과의원,127.00879445559073,37.30272129146746
1082,"경기도 수원시 영통구 광교중앙로 145, 광교엘포트아이파크 2층 212호 (이의동)",올바른안과의원,127.057781422092,37.2870876096225
1083,경기도 수원시 권선구 동수원로242번길 18 ,올바른치과의원,127.03545114380002,37.2501068513
1084,"경기도 수원시 팔달구 권광로 169, 조원빌딩 2층 (인계동)",올본한의원,127.03194667912,37.2628239120543
1085,"경기도 수원시 영통구 영통로 107 (망포동, 유림프라자)",와이치과의원,127.0576600235,37.2376204466
1086,"경기도 수원시 영통구 반달로7번길 40, 401호 (영통동, 평익칼라스위트)",왕정한의원,127.07538423459668,37.25349486462167
1087,"경기도 수원시 팔달구 권광로276번길 4 (인계동,선우프라자4층)",용한의원,127.03610166379886,37.271645163908055
1088,경기도 수원시 장안구 조원로 91 (조원동),우리내과의원,127.015480555555556,37.300961111111114
1089,경기도 수원시 권선구 덕영대로 1088-1 (세류동),우리들내과의원,127.0108076417055,37.25375188273005
1090,경기도 수원시 장안구 정조로 957 (영화동),우리들치과의원,127.0111154337186,37.292539857388625
1091,"경기도 수원시 영통구 영통로154번길 74, 사국빌딩 204호 (망포동)",우리마을치과의원,127.05969699363,37.2413127338037
1092,경기도 수원시 팔달구 동말로 83 (화서동),우리맘산부인과의원,127.00335275799735,37.27895951208897
1093,경기도 수원시 팔달구 동말로 83 (화서동),우리맘소아청소년과의원,127.00338725276387,37.27895987325412
1094,경기도 수원시 팔달구 향교로 161,우리미소치과의원,127.01617022994529,37.27500848952702
1095,경기도 수원시 팔달구 경수대로 419 (인계동),우리병원,127.02492807329761,37.263754919519236
1096,"경기도 수원시 영통구 중부대로 288, 3층 (매탄동, 홍신빌딩)",우리사랑치과의원,127.047034749912,37.273479461384305
1097,경기도 수원시 팔달구 정조로 716-1 (중동),우리산들한의원,127.0168670862429,37.27204592491194
1098,"경기도 수원시 팔달구 정조로 782 (팔달로2가,67-1외 2필지)",우리의원,127.01714048428047,37.2778772550764
1099,"경기도 수원시 영통구 인계로 219, 204호 (매탄동, 삼성1차상가)",우리의원,127.04135685894974,37.26558845960689
1100,경기도 수원시 장안구 정조로 950 (영화동),우리정형외과의원,127.01205370180828,37.29224062099602
1101,경기도 수원시 장안구 창룡대로 185 (연무동),우리치과의원,127.030324927241,37.29248951644874
1102,"경기도 수원시 영통구 덕영대로 1541, 4층 (영통동, 송이빌딩)",우리치과의원,127.059444444444438,37.246302777777778
1103,"경기도 수원시 영통구 중부대로 288, 2층 (매탄동)",우리한의원,127.04703025990061,37.27347945008175
1104,경기도 수원시 장안구 경수대로 892 (조원동),우먼플러스산부인과의원,127.01187104533005,37.29984858047021
1105,경기도 수원시 팔달구 덕영대로 899 (매산로1가),우보한의원,127.00019574451248,37.26813630308502
1106,경기도 수원시 장안구 정자천로13번길 17 (천천동),우정한의원,126.97853392309065,37.28958947417048
1107,"경기도 수원시 팔달구 중부대로 247, 마이온프라자 302호 (우만동)",울림정신건강의학과의원,127.04314366499388,37.27530464939576
1108,"경기도 수원시 영통구 봉영로 1612, 2층 211호 (영통동, 보보스프라자)",움여성한의원,127.07488904282084,37.254291688762756
1109,"경기도 수원시 영통구 광교로 146, 303호 (이의동, 안효빌딩)",웃는E치과교정과치과의원,127.0485355521,37.2929521138
1110,경기도 수원시 영통구 봉영로1744번길 11 (영통동),웃는미래치과의원,127.08287201590917,37.26487904667945
1111,"경기도 수원시 팔달구 권광로 199, 503호 (인계동, 세영빌딩)",웃는얼굴치과의원,127.0329059875,37.2655406517
1112,"경기도 수원시 팔달구 덕영대로697번길 21-7, (화서동)",웅치과의원,126.990172222222228,37.285100000000000
1113,경기도 수원시 팔달구 효원로 265 (인계동),원스의원,127.03124104929905,37.263302914227985
1114,경기도 수원시 팔달구 효원로 23 (매산로3가),원요양병원,127.00944084388354,37.27130768517038
1115,"경기도 수원시 장안구 대평로 80, 404호 (정자동)",원우치과의원,126.9936210038657,37.29553525635914
1116,"경기도 수원시 영통구 매영로 141, 301호 (원천동, 원천훼밀리타운)",원천한의원,127.05816476097567,37.26673471540831
1117,"경기도 수원시 팔달구 경수대로 718, 2층 (우만동)",원한의원,127.0259062764043,37.28914243285715
1118,"경기도 수원시 팔달구 정조로 853 (신풍동, 신진프라자)",웰라이프치과의원,127.0157736802,37.2841344416
1119,"경기도 수원시 권선구 덕영대로1201번길 8, 4층 (권선동)",웰비뇨기과의원,127.02268467372983,37.24968120209792
1120,"경기도 수원시 영통구 영통로 136, 404호 (망포동, 센트럴타워)",웰치과의원,127.056241666666665,37.239622222222224
1121,경기도 수원시 팔달구 매산로 20 (매산로2가),웰치과의원,127.00378539809415,37.26741546087235
1122,경기도 수원시 권선구 금곡로102번길 15,웰치과의원,126.94162034683791,37.27339761833852
1123,"대전광역시 서구 도안동로 3, 리더스프라자에이 201호 (가수원동)",웰컴정신건강의학과의원,127.35269919516726,36.30553946059651
1124,"경기도 수원시 팔달구 권광로 173, 3층 (인계동, 남경빌딩)",위강한의원,127.0319534368,37.2630756615
1125,경기도 수원시 팔달구 경수대로 511 (인계동),위더스요양병원,127.02804702577681,37.27175188003644
1126,"경기도 수원시 영통구 도청로18번길 26, 힐스테이트광교중앙역 3층 322,323호 (이의동)",위드아이소아청소년과의원,127.05047088081179,37.29156745076919
1127,"경기도 수원시 영통구 봉영로1759번길 32 (영통동, 윈 산부인과)",윈산부인과병원,127.08101602704578,37.26668958503025
1128,경기도 수원시 팔달구 정조로 900 (북수동),유계희신경외과의원,127.014869444444443,37.288433333333330
1129,경기도 수원시 장안구 수일로191번길 26 (조원동),유당차서한의원,127.01101509553996,37.30971672022758
1130,"경기도 수원시 팔달구 권광로 163 (인계동,4층)",유디수원치과의원,127.03174573776748,37.2624377793655
1131,경기도 수원시 팔달구 장다리로 276 (인계동),유디치과의원,127.02829290075051,37.27402243912642
1132,"경기도 수원시 영통구 센트럴타운로 98, 4층 (이의동, 경현빌딩)",유디트의원,127.050650753,37.2921583143
1133,"경기도 수원시 팔달구 덕영대로 899, 세진브론즈빌 214호 (매산로1가)",유로진남성의원,127.00022731371905,37.26803538756973
1134,경기도 수원시 권선구 정조로 558 (세류동),유선규치과의원,127.01248125468706,37.25884801927901
1135,"경기도 수원시 팔달구 동말로 84 (화서동, 화서프라자 303호 )",유승박내과의원,127.00325192849148,37.27862108604089
1136,경기도 수원시 영통구 봉영로 1587 ,유앤미피부과,127.07233458871886,37.253326613842965
1137,"경기도 수원시 영통구 도청로17번길 10, 성희프라자 203-1, 303, 304호 (이의동)",유앤아이의원,127.0539936769,37.2861126721
1138,"경기도 수원시 팔달구 효원로265번길 54, 3층 (인계동)",유앤아이의원 수원인계점,127.0312267474,37.261428749800004
1139,"경기도 수원시 영통구 영통로217번길 21, 5층 (영통동)",유엔비의원,127.0556128080729,37.2465243129692
1140,"경기도 수원시 영통구 태장로 84, 302호 (망포동, 망포프라자)",유엘의원,127.0555287932,37.2389658257
1141,경기도 수원시 팔달구 덕영대로 923-10 (매산로1가),유치과의원,127.0016910801,37.2659452751
1142,경기도 수원시 영통구 매영로310번길 12 (영통동),윤가정의학과의원,127.06629900844297,37.25342810116903
1143,경기도 수원시 영통구 덕영대로1483번길 12 (망포동),윤강병원,127.053446470672,37.2463177818127
1144,"경기도 수원시 영통구 봉영로 1590 (영통동, 밀레니엄프라자 305호)",윤상필의원,127.07346715558504,37.252598612648896
1145,경기도 수원시 팔달구 중부대로 215 (우만동),윤정신건강의학과의원,127.04007421282765,37.27639431156403
1146,"경기도 수원시 팔달구 권광로 146 (인계동,벽산그랜드코아201-2,208호)",윤한의원,127.03187119147483,37.26047345958791
1147,경기도 수원시 권선구 정조로 567 (세류동),윤호주소아청소년과의원,127.01241826600073,37.2596950062167
1148,경기도 수원시 장안구 서부로 2189 (율전동),율전정형외과의원,126.97262376352047,37.30361541552871
1149,경기도 수원시 장안구 화산로233번길 12 (율전동),율전치과의원,126.97052309947281,37.29918902816309
1150,경기도 수원시 장안구 서부로 2119 (율전동),율전탑의원,126.970697222222228,37.297849999999997
1151,경기도 수원시 장안구 서부로2123번길 10 (율전동),율전한의원,126.97075659066215,37.29837908026833
1152,"경기도 수원시 권선구 세권로 182, 2층 (권선동, 상재빌딩)",으뜸부부한의원,127.02396493959176,37.25552320453584
1153,경기도 수원시 팔달구 세지로 393 (우만동),은가정의학과의원,127.0282143723,37.28512327299999
1154,"경기도 수원시 권선구 매송고색로 716, 2층 (고색동, 신항빌딩)",은내과의원,126.98279945060075,37.251116474194376
1155,"경기도 수원시 팔달구 장다리로 311, 3층 (인계동, 거성빌딩)",은총한의원,127.03100276563617,37.27604370043518
1156,경기도 수원시 영통구 동수원로 432 (매탄동),은치과의원,127.04178788520551,37.267592442514726
1157,"경기도 수원시 영통구 영통로 505, 3층 (영통동, 정원빌딩)",은혜한의원,127.07756338915262,37.2638770207349
1158,"대전광역시 서구 계백로1158번길 114, 2층 (가수원동)",을지의원,127.35433611111111,36.29999166666667
1159,"경기도 수원시 권선구 오목천로152번길 68, 골든프라자3,5층 (고색동)",의료법인 사랑나무의료재단 서수원병원,126.9779915041,37.2414997275
1160,경기도 수원시 팔달구 중부대로223번길 61 (우만동),의료법인경기의료재단동수원삼성메디컬의원,127.04099862054536,37.27855996868424
1161,경기도 수원시 팔달구 중부대로 165 (우만동),의료법인녹산의료재단동수원병원,127.0343637912553,37.27816562305189
1162,경기도 수원시 팔달구 권광로367번길 77 (우만동),의료법인녹산의료재단동수원한방병원,127.034419444444438,37.278030555555553
1163,경기도 수원시 권선구 호매실로90번길 98 (호매실동),의료법인명인의료재단화홍병원,126.963891671858,37.2601427452511
1164,경기도 수원시 팔달구 정조로 793 (팔달로2가),의료법인송설의료재단수원백병원,127.01621159208904,37.278976634196695
1165,경기도 수원시 팔달구 권광로 197 (인계동),의료법인은산의료재단한사랑의원,127.03277216345569,37.26514435193824
1166,경기도 수원시 팔달구 매산로 138 (교동),의료법인장산의료재단이춘택병원,127.0156403845936,37.27201726001927
1167,경기도 수원시 팔달구 경수대로 437 (인계동),의료법인토마스의료재단윌스기념병원,127.0254583588438,37.26502978126203
1168,경기도 수원시 영통구 중부대로246번길 14 (매탄동),의료법인한성재단S서울병원,127.04177357546878,37.27459528336017
1169,"경기도 수원시 영통구 광교중앙로 170, 광교 효성해링턴 타워 212호 (하동)",이가영치과의원,127.060702664758,37.2881245943755
1170,경기도 수원시 팔달구 정조로 774 ,이강욱치과의원,127.01701702983487,37.27709534783981
1171,"경기도 수원시 팔달구 권광로 197, 3층 301호 (인계동)",이건강치과의원,127.03279762457183,37.2652307233388
1172,"대전광역시 서구 도안동로11번길 10, 3층 301,302,303호 (가수원동)",이경민소아청소년과의원,127.3521953663,36.3064024764
1173,경기도 수원시 팔달구 동말로 71 (화서동),이광호치과의원,127.00188982526433,37.27895269831127
1174,경기도 수원시 영통구 동수원로 316 (매탄동),이기권치과의원,127.0376072637701,37.25769681950754
1175,"경기도 수원시 권선구 동수원로 232, 207호 (권선동, 센터블)",이노치과의원,127.03460543149978,37.250074926773486
1176,"경기도 수원시 권선구 세류로34번길 6, 2층 (세류동)",이담소아청소년과의원,127.0075981676,37.261775020099996
1177,경기도 수원시 팔달구 권광로 163 (인계동),이득기산부인과의원,127.03174573776748,37.2624377793655
1178,"경기도 수원시 영통구 매봉로 20 (매탄동, 매탄e편한세상211 2층)",이든소아청소년과의원,127.05310003109989,37.27059029986809
1179,"경기도 수원시 권선구 금곡로 100, 4층 403호 (금곡동, 이레연합의원)",이레연합의원,126.94128856440864,37.273874308324665
1180,"경기도 수원시 장안구 송원로 81, 405-1호 (조원동, 메가플러스2차)",이룸치과의원,127.00920947600298,37.302166231207764
1181,경기도 수원시 팔달구 정조로 782,이명성형외과의원,127.01722165481413,37.277812369957324
1182,"경기도 수원시 장안구 수성로262번길 2, 2층 우측호 (영화동)",이명준치과의원,127.001151875274,37.2897358928262
