,교육청명,교육지원청명,유치원명,설립유형,대표자명,원장명,설립일,개원일,주소,전화번호,홈페이지,만3세학급수,만4세학급수,만5세학급수,혼합학급수,특수학급수,만3세유아수,만4세유아수,만5세유아수,혼합유아수,특수유아수,lat,lon
0,강원도교육청,강릉교육지원청,옥계초등학교금진분교장병설유치원,공립(병설),이재숙,이재숙,19820301,19820301,강원도 강릉시 금진안길 2,033-534-0107, ,0,0,0,1,0,0,0,0,2,0,37.6349571276333,129.043471801347
1,강원도교육청,강릉교육지원청,청담유치원,사립(사인),최중철,심수희,20141015,20150302,강원도 강릉시 가작로287번길 40-2,033-653-2589, ,1,1,1,0,0,10,18,16,0,0,37.7738337545505,128.905644601616
2,강원도교육청,강릉교육지원청,좋은유치원,사립(사인),이호전,이호전,19881111,19881111,강원도 강릉시 남부로136번길 19,033-642-6197, ,1,2,2,0,0,24,44,36,0,0,37.7406201259036,128.896279487452
3,강원도교육청,강릉교육지원청,강릉초등학교병설유치원,공립(병설),김윤기,김윤기,19810310,19810310,강원도 강릉시 토성로 103,033-650-2670,http://kangnung.gwe.es.kr/,1,1,1,0,0,11,18,24,0,0,37.7536780619204,128.887750994969
4,강원도교육청,강릉교육지원청,영동초등학교병설유치원,공립(병설),배정희,배정희,19850922,19850922,강원도 강릉시 화부산로 28,033-650-6790,http://yeongdong.gwe.es.kr,0,0,0,1,0,0,0,0,13,0,37.7604441923164,128.886160132751
5,강원도교육청,강릉교육지원청,경포유치원,공립(단설),김혜자,김혜자,20031008,20031008,강원도 강릉시 솔올로 90,033-647-1682,http://kyongpo.gwe.kg.kr,1,2,2,0,1,16,43,43,0,4,37.770006574227,128.879857548236
6,강원도교육청,강릉교육지원청,옥계초등학교병설유치원,공립(병설),이재숙,이재숙,19800301,19800301,강원도 강릉시 옥계로 1074,033-534-1164, ,1,1,1,0,0,7,11,8,0,0,37.6094088046765,129.034776669757
7,강원도교육청,강릉교육지원청,소화유치원,사립(사인),김명주,김명주,19670310,19670310,강원도 강릉시 임영로 148,033-643-3191, ,1,2,2,0,0,24,52,54,0,0,37.7542589112306,128.892485576944
8,강원도교육청,강릉교육지원청,하슬라유치원,공립(단설),장은숙,장은숙,20160301,20160301,강원도 강릉시 율곡로2692번길 8,033-649-8800,http://haseulla.gwe.kg.kr/,1,2,2,0,1,17,42,47,0,5,37.7485069776817,128.909879116556
9,강원도교육청,강릉교육지원청,정동초등학교병설유치원,공립(병설),권혁록,권혁록,19810320,19810320,강원도 강릉시 헌화로 1055,070-4810-6418,http://jeongdong.gwe.es.kr/,0,0,0,1,0,0,0,0,8,0,37.6873531765373,129.033617380648
10,강원도교육청,강릉교육지원청,강릉유치원,사립(사인),이상천,최종숙,19830310,19830310,강원도 강릉시 해안로 333,033-652-9360, ,1,1,1,0,0,24,25,24,0,0,37.7928673193847,128.916401415643
11,강원도교육청,강릉교육지원청,금광초등학교병설유치원,공립(병설),이숭복,이숭복,19810318,19810318,강원도 강릉시 금평로 575,033-646-9424,http://www.kumkwang.gwe.es.kr/,0,0,0,1,0,0,0,0,13,0,37.703882582893,128.913554706374
12,강원도교육청,강릉교육지원청,제이엠유치원,사립(사인),박영옥,손미애,20131101,20140301,강원도 강릉시 성덕로 328-1,6559494,http://jmkids.co.kr,2,2,2,0,0,44,48,46,0,0,37.7535560270715,128.920871904261
13,강원도교육청,강릉교육지원청,남산초등학교병설유치원,공립(병설),최창섭,최창섭,19910310,19910310,강원도 강릉시 남산초교길 33,033-650-4705,http://namsan-n.gwe.es.kr/classMgt/view.do,0,0,1,1,0,0,0,19,10,0,37.7444900417119,128.892106032088
14,강원도교육청,강릉교육지원청,성산초등학교병설유치원,공립(병설),김은순,김은순,19870304,19870304,강원도 강릉시 구산길 15,033-641-9107,http://seongsan.gwe.es.kr,0,0,0,1,0,0,0,0,11,0,37.7190711064891,128.833743089096
15,강원도교육청,강릉교육지원청,주영초등학교병설유치원,공립(병설),강호진,강호진,19810311,19810311,강원도 강릉시 약수동길 15-12,033-660-7370,http://juyoung.gwe.es.kr,0,0,0,1,0,0,0,0,5,0,37.8980032591894,128.8260431755
16,강원도교육청,강릉교육지원청,명주초등학교병설유치원,공립(병설),권기자,권기자,19810301,19810301,강원도 강릉시 강변로 86-1,033-645-1735, ,0,0,0,1,0,0,0,0,18,0,37.7427781727303,128.878469198556
17,강원도교육청,강릉교육지원청,사천초등학교병설유치원,공립(병설),김재일,김재일,19810310,19810310,강원도 강릉시 미노길 46,033-660-6571,http://kwsachon.gwe.es.kr/boardCnts/list.do?boardID=68458&m=020601&s=kwsachon,0,0,0,1,0,0,0,0,11,0,37.8218886704059,128.850513850304
18,강원도교육청,강릉교육지원청,신영초등학교병설유치원,공립(병설),최종호,최종호,19810301,19810301,강원도 강릉시 주문북로 160,033-660-6082, ,0,0,0,1,0,0,0,0,6,0,37.9070684326529,128.823265241484
19,강원도교육청,강릉교육지원청,다인유치원,사립(사인),김상희,신은정,20070223,20070223,강원도 강릉시 성덕로 232-11,033-652-7701,https://dain-kindergarten.kidsnote.ac,1,1,2,1,0,6,15,38,7,0,37.7601408252507,128.929536015457
20,강원도교육청,강릉교육지원청,구정초등학교병설유치원,공립(병설),임영선,임영선,19810310,19810310,강원도 강릉시 범일로 266-14,033-647-9608,http://gujoung.gwe.es.kr,0,0,0,1,0,0,0,0,13,0,37.7179000788186,128.890997482178
21,강원도교육청,강릉교육지원청,모산초등학교병설유치원,공립(병설),김태순,김태순,19810310,19810310,강원도 강릉시 모산로224번길 3,033-645-1399, ,0,0,0,1,0,0,0,0,13,0,37.7318400329087,128.901780514655
22,강원도교육청,강릉교육지원청,성원유치원,사립(사인),최은서,박진아,20030113,20030113,강원도 강릉시 강변로 78,033-642-0143,http://www.sungwonkid.com/,2,2,2,0,0,47,52,50,0,0,37.7438519743913,128.877570981999
23,강원도교육청,강릉교육지원청,노암초등학교병설유치원,공립(병설),이영희,이영희,19800301,19801014,강원도 강릉시 노암등길 71,033-640-6174, ,0,0,1,1,0,0,0,10,6,0,37.7408229737556,128.901540983868
24,강원도교육청,강릉교육지원청,솔향유치원,공립(단설),전미정,전미정,20121010,20160301,강원도 강릉시 보래미하길 78,033-650-0910,http://solhyang.gwe.kg.kr/,1,2,2,0,1,15,43,48,0,2,37.7755050918211,128.914127923335
25,강원도교육청,강릉교육지원청,교동초등학교병설유치원,공립(병설),정혜은,정혜은,19810301,19810301,강원도 강릉시 율곡로2968번길 10,033-640-3571,http://krkyodong.gwe.es.kr,0,0,1,1,0,0,0,10,16,0,37.7673082356342,128.89358463194
26,강원도교육청,강릉교육지원청,유천초등학교병설유치원,공립(병설),구미숙,구미숙,20200301,20200301,강원도 강릉시 선수촌로 100,033-820-8070,http://yucheon.gwe.es.kr/main.do,0,1,1,0,1,0,19,20,0,1,37.7600112438555,128.871127555879
27,강원도교육청,강릉교육지원청,경포대초등학교병설유치원,공립(병설),김동원,김동원,19810301,19810301,강원도 강릉시 경포로475번길 23-11,033-610-8961, ,0,0,0,1,0,0,0,0,5,0,37.8048710495312,128.900138774361
28,강원도교육청,강릉교육지원청,연곡초등학교병설유치원,공립(병설),황재익,황재익,20070308,20070301,강원도 강릉시 진고개로 2656,033-662-6056,http://youngok.gwe.es.kr/main.do,0,0,1,1,0,0,0,6,8,0,37.8570964483122,128.829286564461
29,강원도교육청,강릉교육지원청,금천유치원,사립(사인),장명환,김지미,19230729,19230729,강원도 강릉시 금성로 28-2,033-642-9976, ,1,1,1,0,0,10,7,13,0,0,37.754124677373,128.897269472011
30,강원도교육청,강릉교육지원청,신왕초등학교병설유치원,공립(병설),우영철,우영철,19810301,19810301,강원도 강릉시 진고개로 2265-11,033-661-6340, ,0,0,0,1,0,0,0,0,7,0,37.8536153427774,128.787309620299
31,강원도교육청,강릉교육지원청,강동초등학교병설유치원,공립(병설),민영배,민영배,19810301,19810301,강원도 강릉시 단경로 20,033-645-7266,http://kangdong.gwe.es.kr,0,0,0,1,0,0,0,0,7,0,37.724744025908,128.96234064158
32,강원도교육청,강릉교육지원청,왕산초등학교병설유치원,공립(병설),박부기,박부기,19360804,19360804,강원도 강릉시 백두대간로 2011-8,033-648-6131,http://wangsan.gwe.es.kr/,0,0,0,1,0,0,0,0,8,0,37.673598979573,128.836858544849
33,강원도교육청,강릉교육지원청,프렌비숲유치원,사립(법인),양미옥,양미옥,20141014,20150301,강원도 강릉시 율곡로3173번길 19,033-641-3562,http://cosmos.kidswon.com,1,2,2,0,0,24,52,52,0,0,37.7816103566486,128.877697585079
34,강원도교육청,강릉교육지원청,가온유치원,사립(사인),김양희,김양희,20141015,20150302,강원도 강릉시 하슬라로20번길 15,033-645-1231, ,1,2,2,0,0,24,52,44,0,0,37.7560982684264,128.879349545785
35,강원도교육청,강릉교육지원청,옥천초등학교병설유치원,공립(병설),윤종희 ,윤종희 ,20190301,20190301,강원도 강릉시 수문길 25,033-650-6895,http://okcheon.gwe.es.kr/boardCnts/list.do?boardID=69281&m=1001&s=okcheones,0,1,1,0,0,0,8,20,0,0,37.7557567673504,128.903243527637
36,강원도교육청,강릉교육지원청,주문진초등학교병설유치원,공립(병설),김득주,김득주,19820301,19820301,강원도 강릉시 주문로 26,033-660-8787, ,1,1,1,0,0,8,10,8,0,0,37.8868822292924,128.826639877288
37,강원도교육청,고성교육지원청,거진초등학교병설유치원,공립(병설),안보영,안보영,19810301,19810301,강원도 고성군 자산길 19,033-682-2656, ,0,0,0,1,0,0,0,0,14,0,38.4384728862615,128.44483620561
38,강원도교육청,고성교육지원청,천진초등학교병설유치원,공립(병설),이춘기,이춘기,19810306,19810306,강원도 고성군 천진1길 14,033-633-3223,http://www.천진초등학교.한국,0,0,0,1,0,0,0,0,12,0,38.257437953602,128.557089875573
39,강원도교육청,고성교육지원청,죽왕초등학교병설유치원,공립(병설),방대식,방대식,19850820,19850901,강원도 고성군 송지호로 6,033-632-8908,http://jw.gwe.es.kr,0,0,0,1,0,0,0,0,14,0,38.3303363942615,128.522409556076
40,강원도교육청,고성교육지원청,광산초등학교병설유치원,공립(병설),허연숙 ,허연숙,19840615,19840615,강원도 고성군 진부령로 2427,033-681-0084, ,0,0,0,1,0,0,0,0,9,0,38.3752638287589,128.41391753206
41,강원도교육청,고성교육지원청,대진초등학교병설유치원,공립(병설),홍광표,홍광표,19810301,19810401,강원도 고성군 대진3길 15,033-682-6273, ,0,0,0,1,0,0,0,0,4,0,38.4969627401358,128.42357492272
42,강원도교육청,고성교육지원청,간성초등학교병설유치원,공립(병설),이한준,이한준,19810305,19810305,강원도 고성군 간성로39번길 20,033-681-2003, ,0,0,1,1,0,0,0,15,15,0,38.3773055392482,128.468732734177
43,강원도교육청,고성교육지원청,푸른하늘유치원,사립(사인),엄현주,엄현주,19931122,19931122,강원도 고성군 용촌길 7,033-636-1434, ,0,0,0,2,0,0,0,0,44,0,38.2309400719335,128.579174088182
44,강원도교육청,고성교육지원청,거성초등학교병설유치원,공립(병설),지준천,지준천,19810301,19810301,강원도 고성군 거성길 38,033-682-2636,http://www.guesung.es.kr/,0,0,0,1,0,0,0,0,7,0,38.4525810779628,128.457160571794
45,강원도교육청,고성교육지원청,공현진초등학교병설유치원,공립(병설),양성자,양성자,19820301,19820301,강원도 고성군 공현진한옥길 49,033-631-3538, ,0,0,0,1,0,0,0,0,16,0,38.3545746852175,128.507630094785
46,강원도교육청,고성교육지원청,동광초등학교병설유치원,공립(병설),이성표,이성표,19840310,19840310,강원도 고성군 교암1길 15,033-631-7429,http://www.donggwangg.es.kr,0,0,0,1,0,0,0,0,12,0,38.2884329085702,128.54349323531
47,강원도교육청,고성교육지원청,오호초등학교병설유치원,공립(병설),박미선,박미선,19810323,19810323,강원도 고성군 황포길 28,033-632-0287, ,0,0,0,1,0,0,0,0,5,0,38.313752959415,128.531910939775
48,강원도교육청,동해교육지원청,해오름유치원,공립(단설),김옥기,김옥기,20110301,20110301,강원도 동해시 관사길 11,033-520-2000,http://haeorm.gwe.kg.kr/,1,1,1,0,1,25,18,22,0,5,37.5499337692374,129.105103241445
49,강원도교육청,동해교육지원청,동해랑유치원,공립(단설),홍연표,홍연표,20121010,20160301,강원도 동해시 전천로 276-27,033-520-3000,https://dhrang.gwe.kg.kr,1,1,2,0,1,15,21,44,0,5,37.479710681773,129.123807555969
50,강원도교육청,동해교육지원청,동해초등학교병설유치원,공립(병설),이인숙,이인숙,19890301,19890301,강원도 동해시 봉오주택길 22,033-530-7977,http://www.tonghae.es.kr,1,1,1,0,0,10,9,6,0,0,37.5122238433699,129.119799974277
51,강원도교육청,동해교육지원청,바라밀유치원,사립(사인),김종민,송명숙,20030210,20030210,강원도 동해시 해안로 77,033-531-6699, ,2,1,1,0,0,24,25,18,0,0,37.5103870238001,129.12451612241
52,강원도교육청,동해교육지원청,아이솔유치원,사립(사인),김은희,김은희,20110302,20110302,강원도 동해시 승지로 30,033-535-7070, ,2,2,1,0,0,21,23,24,0,0,37.5383963830761,129.098356329879
53,강원도교육청,동해교육지원청,삼화초등학교병설유치원,공립(병설),이현길,이현길,19820301,19820301,강원도 동해시 파수길 38,033-530-6930,http://www.samhwa.es.kr,0,0,1,1,0,0,0,6,5,0,37.4846294628854,129.067705348193
54,강원도교육청,동해교육지원청,리라유치원,사립(사인),이상걸,김미영,19940101,20090811,강원도 동해시 송이고개길 11,033-531-5337, ,2,2,2,0,0,36,48,36,0,0,37.5424963073667,129.099009461235
55,강원도교육청,동해교육지원청,예쁜유치원,사립(사인),최옥련,최옥련,19730301,19730301,강원도 동해시 감추3길 37-1,033-532-9809,http://www.yebbeun-kindergarten.co.kr,2,1,1,0,0,24,26,21,0,0,37.5170940597733,129.1222576017
56,강원도교육청,동해교육지원청,천곡초등학교병설유치원,공립(병설),신순금,신순금,19950301,19950301,강원도 동해시 동굴로 33,033-530-6797,http://www.semsil.es.kr,0,0,12,14,0,0,0,12,14,0,37.5177867993462,129.107887072887
57,강원도교육청,동해교육지원청,동해중앙초등학교병설유치원,공립(병설),윤영희,윤영희,19810308,19810308,강원도 동해시 천곡로 35,033-530-8995, ,0,1,1,0,0,0,8,17,0,0,37.5253337148604,129.108497180212
58,강원도교육청,동해교육지원청,남호초등학교병설유치원,공립(병설),김연옥,김연옥,19810310,19810310,강원도 동해시 평원로 120,033-530-7890,http://www.namho.es.kr,0,1,1,0,0,0,20,22,0,0,37.5343736475906,129.113168493531
59,강원도교육청,동해교육지원청,대동유치원,사립(사인),김재동,이경숙,19951020,19951020,강원도 동해시 청운로 78,033-521-8020, ,2,2,2,0,0,30,44,36,0,0,37.4868824146508,129.103179892736
60,강원도교육청,동해교육지원청,무지개유치원,사립(사인),김성희,김성희,19921010,19921010,강원도 동해시 천곡1길 90,033-535-2166, ,2,2,2,0,0,32,52,50,0,0,37.5278637378647,129.106513861075
61,강원도교육청,동해교육지원청,망상초등학교병설유치원,공립(병설),이금연,이금연,19880401,19880401,강원도 동해시 동해대로 6251,033-530-3518,http://www.mangsang.gwe.es.kr ,0,0,0,1,0,0,0,0,14,0,37.5908674180246,129.090246596586
62,강원도교육청,동해교육지원청,성호유치원,사립(사인),이선희,이선희,19940301,19940301,강원도 동해시 샘실1길 7,033-535-3353, ,2,2,2,0,0,32,38,50,0,0,37.5203221454867,129.104781322831
63,강원도교육청,동해교육지원청,솔빛유치원,사립(사인),손민숙,손민숙,20090301,20090301,강원도 동해시 청운2길 21,033-521-5553, ,1,1,1,1,0,18,23,31,18,0,37.4847407711778,129.105473121603
64,강원도교육청,삼척교육지원청,중앙유치원,사립(사인),배숭혁,정주연,19260610,19260610,강원도 삼척시 죽서루길 61,033-573-1630,http://cafe.daum.net/JAkindergarten,1,1,1,0,0,24,26,25,0,0,37.441590505922,129.159818345708
65,강원도교육청,삼척교육지원청,진주초등학교병설유치원,공립(병설),정명숙,정명숙,20200301,20200301,강원도 삼척시 사직로1길 23,033-573-3463,http://jinju.gwe.es.kr,0,1,1,0,0,0,16,17,0,0,37.4331408959685,129.165120557234
66,강원도교육청,삼척교육지원청,신동초등학교병설유치원,공립(병설),정근재,정근재,20030320,20030320,강원도 삼척시 강원남부로 2997,033-541-1885,http://www.sindong-e.es.kr,0,0,0,1,0,0,0,0,4,0,37.3503852178859,129.081929175099
67,강원도교육청,삼척교육지원청,삼척누리유치원,공립(단설),이은주,이은주,20120118,20120301,강원도 삼척시 동해대로 3783-24,033-570-7101,http://samcheoknuri.gwe.kg.kr/,1,2,2,0,1,16,40,44,0,4,37.4243239041191,129.18777127029
68,강원도교육청,삼척교육지원청,꿈나라유치원,사립(사인),유금란,유금란,20010110,20010110,강원도 삼척시 강원남부로 1348-20,033-541-9160,http://cafe.daum.net/5416565/,0,0,0,1,0,0,0,0,7,0,37.2255732002981,129.041806189533
69,강원도교육청,삼척교육지원청,도계한빛유치원,공립(단설),윤석희,윤석희,20050301,20050301,강원도 삼척시 도계로 265,033-541-9996,https://hanbit.gwe.kg.kr,1,2,1,0,1,10,25,15,0,3,37.2333406726852,129.044626193
70,강원도교육청,삼척교육지원청,노란유치원,사립(사인),심태은,심태은,19761005,19761005,강원도 삼척시 정상로 91-55,033-573-4253, ,2,1,2,0,0,41,25,43,0,0,37.4502335175585,129.173672019972
71,강원도교육청,삼척교육지원청,임원초등학교병설유치원,공립(병설),황의구,황의구,19810310,19810310,강원도 삼척시 삼척로 1246,033-572-7599, ,0,0,0,1,0,0,0,0,3,0,37.2360833134976,129.342239718805
72,강원도교육청,삼척교육지원청,근덕초등학교궁촌분교장병설유치원,공립(병설),박호규,박호규,19870305,19870305,강원도 삼척시 궁촌길 66,033-572-3007, ,0,0,0,1,0,0,0,0,4,0,37.3202137689641,129.264361876878
73,강원도교육청,삼척교육지원청,맹방초등학교병설유치원,공립(병설),김현숙,김현숙,19800301,19800301,강원도 삼척시 삼척로 3884-4,033-572-3406,http://www.m-bang.es.kr,0,0,0,1,0,0,0,0,13,0,37.3985267608017,129.212776806263
74,강원도교육청,삼척교육지원청,정라초등학교병설유치원,공립(병설),오세도,오세도,19810302,19810302,강원도 삼척시 정상로3길 5,033-571-5394,http://jeongra.gwe.es.kr,1,1,1,0,0,16,20,24,0,0,37.4442912069684,129.176880621996
75,강원도교육청,삼척교육지원청,다솔유치원,사립(사인),천성일,김란현,20120301,20120301,강원도 삼척시 정상로 19,033-572-5959, ,2,2,2,0,0,39,34,37,0,0,37.4437422913139,129.175987507898
76,강원도교육청,삼척교육지원청,호산초등학교병설유치원,공립(병설),최미애,최미애,19810307,19810307,강원도 삼척시 삼척로 462-12,033-572-6102,http://hosan.gwe.es.kr/,0,0,0,2,0,0,0,0,25,0,37.1775353095533,129.335433377354
77,강원도교육청,삼척교육지원청,오저초등학교병설유치원,공립(병설),최동순,최동순,20120301,20120301,강원도 삼척시 가곡천로 1430,033-573-4360,http://ojeo.gwe.es.kr/,0,0,0,1,0,0,0,0,4,0,37.1466204176473,129.20661754442
78,강원도교육청,삼척교육지원청,하장초등학교병설유치원,공립(병설),김용묵,김용묵,19840301,19840301,강원도 삼척시 하장길 84,033-544-1034, ,0,0,0,1,0,0,0,0,3,0,37.3477733332836,128.944303900406
79,강원도교육청,삼척교육지원청,장호초등학교병설유치원,공립(병설),김성숙,김성숙,19810320,19810320,강원도 삼척시 장호안1길 24,033-572-8704,http://www.jangho.es.kr/,0,0,0,1,0,0,0,0,5,0,37.2827791109029,129.313910310413
80,강원도교육청,삼척교육지원청,미라유치원,사립(사인),김선의,김선의,20140301,20140301,강원도 삼척시 청석로3길 25,572-3500,https://cafe.naver.com/mirakindergarten,2,2,2,0,0,16,43,35,0,0,37.449013713923,129.176239239733
81,강원도교육청,삼척교육지원청,미로초등학교병설유치원,공립(병설),김정옥,김정옥,19810301,19810301,강원도 삼척시 미로강변로1길 10-11,033-570-0821,http://miro.gwe.es.kr/,0,0,0,1,0,0,0,0,10,0,37.4149159156258,129.115004546009
82,강원도교육청,속초양양교육지원청,경동대학교부속유치원,사립(법인),고희재,한혜경,19990827,19990827,강원도 속초시 도리원길 5,033-639-0700, ,1,1,2,0,0,19,25,44,0,0,38.192172986969,128.551158403428
83,강원도교육청,속초양양교육지원청,산호유치원,공립(단설),이현숙,이현숙,20070301,20070301,강원도 속초시 조양로118번길 7,033-637-0622,https://sanho.gwe.kg.kr,1,2,2,0,0,16,44,47,0,0,38.1877564070428,128.587421141323
84,강원도교육청,속초양양교육지원청,인구초등학교임호분교장병설유치원,공립(병설),김윤찬,김윤찬,19840907,19840907,강원도 양양군 화상천로 164,033-671-7226, ,0,0,0,1,0,0,0,0,1,0,37.9256826213042,128.776813763752
85,강원도교육청,속초양양교육지원청,한남초등학교병설유치원,공립(병설),이행섭,이행섭,19840602,19840602,강원도 양양군 남대천로 218,033-672-2867,http://yyhannam.gwe.es.kr,0,0,0,1,0,0,0,0,8,0,38.0562906811613,128.607344395292
86,강원도교육청,속초양양교육지원청,양양초등학교병설유치원,공립(병설),이용승,이용승,19810301,19810301,강원도 양양군 군청길 39,033-671-2872, ,0,0,0,1,0,0,0,0,12,0,38.0773203365078,128.621743150915
87,강원도교육청,속초양양교육지원청,상평초등학교병설유치원,공립(병설),이준일,이준일,19810304,19810304,강원도 양양군 물윗구미길 18,033-672-2982, ,0,0,0,1,0,0,0,0,11,0,38.0719804207965,128.586430465189
88,강원도교육청,속초양양교육지원청,조산초등학교병설유치원,공립(병설),임경수,임경수,19810301,19810301,강원도 양양군 동해대로 3020,033-670-9800,http://josan.gwe.es.kr,0,0,0,1,0,0,0,0,8,0,38.1137111073172,128.632399826884
89,강원도교육청,속초양양교육지원청,청호초등학교병설유치원,공립(병설),채재순,채재순,20190308,20190308,강원도 속초시 청호로 60,033-636-8743, ,0,0,0,1,0,0,0,0,18,0,38.1962511762468,128.598336821649
90,강원도교육청,속초양양교육지원청,재단법인새싹유치원,사립(법인),김해련,김해련,19790109,19790302,강원도 속초시 수복로 215,033-633-3704, ,1,1,1,0,0,4,17,21,0,0,38.206800842217,128.589338749543
91,강원도교육청,속초양양교육지원청,손양초등학교병설유치원,공립(병설),박대성,박대성,19840613,19840613,강원도 양양군 손중로 202,033-672-2619, ,0,0,0,1,0,0,0,0,4,0,38.0603030287966,128.64298617339
92,강원도교육청,속초양양교육지원청,인구초등학교병설유치원,공립(병설),김윤찬,김윤찬,19810301,19810301,강원도 양양군 해송천로 10,033-670-3309,http://www.ingu.es.kr,0,0,0,1,0,0,0,0,10,0,37.9680829996027,128.758397867635
93,강원도교육청,속초양양교육지원청,소야초등학교병설유치원,공립(병설),홍명갑,홍명갑,20030301,20030301,강원도 속초시 배움터길 42,033-630-9590,http://soya.gwe.es.kr,0,0,1,1,0,0,0,19,16,0,38.1996485179768,128.566719501396
94,강원도교육청,속초양양교육지원청,회룡초등학교병설유치원,공립(병설), 김미정,김미정,19840602,19840602,강원도 양양군 소금재길 161,033-671-8475,http://www.hoe-ryong.es.kr,0,0,0,1,0,0,0,0,7,0,0,0
95,강원도교육청,속초양양교육지원청,설악초등학교병설유치원,공립(병설),박영서,박영서,19820301,19820301,강원도 속초시 청봉로 51,033-636-7052,http://www.seorak.es.kr,0,0,0,1,0,0,0,0,10,0,38.1640579934851,128.540266391171
96,강원도교육청,속초양양교육지원청,강현초등학교병설유치원,공립(병설),김용길,김용길,19810301,19810301,강원도 양양군 진미로12번길 22,033-670-9018,http://kh.gwe.es.kr/,0,0,0,1,0,0,0,0,14,0,38.149663070759,128.603984101525
97,강원도교육청,속초양양교육지원청,온정초등학교병설유치원,공립(병설),김영록,김영록,19820210,19820210,강원도 속초시 온천로 107,033-632-8726,http://onjeong.gwe.es.kr/,0,0,0,1,0,0,0,0,17,0,38.1899334977881,128.553968116205
98,강원도교육청,속초양양교육지원청,청대초등학교병설유치원,공립(병설),김영숙,김영숙,19970301,19970401,강원도 속초시 소평로 175,033-639-9082,https://cheongdae.gwe.es.kr,1,1,2,0,1,15,18,47,0,4,38.1911317378213,128.576561778231
99,강원도교육청,속초양양교육지원청,대포초등학교병설유치원,공립(병설),방진원,방진원,20190301,20190305,강원도 속초시 동해대로 3797,033-630-4707,http://daepo.gwe.es.kr,0,0,0,1,0,0,0,0,18,0,38.1737233187585,128.603162066151
100,강원도교육청,속초양양교육지원청,속초유치원,공립(단설),최미재,최미재,20130110,20150301,강원도 속초시 중앙로 331,033-639-6920,http://sokcho.gwe.kg.kr,2,2,2,0,1,32,44,44,0,4,38.2179095902176,128.590596064972
101,강원도교육청,속초양양교육지원청,광정초등학교병설유치원,공립(병설),배정호,배정호,19810219,19810320,강원도 양양군 하조대1길 38,033-672-8676,http://gi.gwe.es.kr,0,0,0,1,0,0,0,0,7,0,38.018583505215,128.725106782758
102,강원도교육청,속초양양교육지원청,송포초등학교병설유치원,공립(병설),류시덕,류시덕,19840620,19840620,강원도 양양군 동명로 321-11,033-671-8792,http://songpho.gwe.es.kr,0,0,0,1,0,0,0,0,2,0,38.089565391311,128.656532529301
103,강원도교육청,속초양양교육지원청,낙산유치원,사립(사인),허창수,신선희,19850531,19850531,강원도 양양군 남서길 28-4,033-671-4167, ,2,2,2,0,0,32,44,48,0,0,38.0728565478694,128.618488919059
104,강원도교육청,속초양양교육지원청,현북초등학교병설유치원,공립(병설),한상숙,한상숙,19810219,19810219,강원도 양양군 송이로 222,033-672-8714,http://hyonbuk.es.kr ,0,0,0,1,0,0,0,0,6,0,38.015735306922,128.697392763961
105,강원도교육청,속초양양교육지원청,현성초등학교병설유치원,공립(병설),전영선,전영선,19860901,19860901,강원도 양양군 어성전길 114,033-673-8795,http://hyunsung.es.kr,0,0,0,1,0,0,0,0,1,0,37.9520418428316,128.665233212065
106,강원도교육청,양구교육지원청,도촌초등학교병설유치원,공립(병설),최문수,최문수,20200301,20200301,강원도 양구군 정중앙로 259,033-482-0803,http://www.dochon.gwe.es.kr,0,0,0,1,0,0,0,0,11,0,38.0800980145846,128.021374600273
107,강원도교육청,양구교육지원청,원당초등학교병설유치원,공립(병설),차경희,차경희,19870303,19870303,강원도 양구군 원당길52번길 9-17,033-481-0230,https://yg-wondang.gwe.es.kr/,0,0,0,1,1,0,0,0,13,5,38.1886034873468,128.043583469141
108,강원도교육청,양구교육지원청,한전초등학교병설유치원,공립(병설),권오련,권오련,19870310,19870310,강원도 양구군 금강산로 858,033-481-2973,http://hanjon.gwe.es.kr,0,0,0,1,0,0,0,0,10,0,38.1491309810499,128.01598538211
109,강원도교육청,양구교육지원청,해안초등학교병설유치원,공립(병설),한춘자,한춘자,19870216,19870302,강원도 양구군 펀치볼로 1341-33,033-481-9968, ,0,0,0,1,0,0,0,0,10,0,38.2894086135579,128.137539390026
110,강원도교육청,양구교육지원청,양구초등학교병설유치원,공립(병설),김기선,김기선,19810430,19810430,강원도 양구군 양구새싹로 48,033-482-1265,http://yanggu.gwe.es.kr,0,0,1,0,0,0,0,24,0,0,38.1029082347227,127.991452508826
111,강원도교육청,양구교육지원청,죽리초등학교병설유치원,공립(병설),박정섭,박정섭,19820220,19820220,강원도 양구군 춘양로 2726,033-482-0635, ,0,0,0,1,0,0,0,0,20,0,38.0701286209278,127.993795789322
112,강원도교육청,양구교육지원청,비봉초등학교병설유치원,공립(병설),박미혜,박미혜,19820302,19820302,강원도 양구군 관공서로 56,033-482-1476,http://esbibong.gwe.es.kr,0,0,1,1,0,0,0,17,15,0,38.1105895522699,127.988067539677
113,강원도교육청,양구교육지원청,용하초등학교병설유치원,공립(병설),노철수,노철수,19810430,19810430,강원도 양구군 정중앙로 624-7,033-481-4052, ,0,0,0,1,0,0,0,0,11,0,38.1095336795111,128.036073521461
114,강원도교육청,양구교육지원청,방산초등학교병설유치원,공립(병설),배정미,배정미,19820206,19820206,강원도 양구군 평화로 5121-7,033-481-5907, ,0,0,0,1,0,0,0,0,10,0,38.2093577264106,127.943515214578
115,강원도교육청,양구교육지원청,임당초등학교병설유치원,공립(병설),김은숙,김은숙,19970301,19970303,강원도 양구군 금강산로 1673,033-481-0006,http://imdang.gwe.es.kr,0,0,0,1,0,0,0,0,13,0,38.2011076927164,128.042170202575
116,강원도교육청,영월교육지원청,청령포초등학교병설유치원,공립(병설),고광순,고광순,19820302,19820302,강원도 영월군 청령포로 191,033-373-0768,http://www. cheongeong.es.kr,0,0,0,1,0,0,0,0,3,0,37.1803478799975,128.441479924756
117,강원도교육청,영월교육지원청,신천초등학교병설유치원,공립(병설),정광태,정광태,19810320,19810320,강원도 영월군 신천길 4,033-372-3727,http://ywsc.gwe.es.kr,0,0,0,1,0,0,0,0,12,0,37.236365572256,128.329002929161
118,강원도교육청,영월교육지원청,영월유치원,사립(사인),전규택,이미정,19560406,19560406,강원도 영월군 하송로 112,033-374-4746,http://cafe.daum.net/0333744746 ,1,1,1,0,0,14,4,16,0,0,37.1794326339328,128.459357398245
119,강원도교육청,영월교육지원청,내성초등학교병설유치원,공립(병설),이교원,이교원,19870301,19870301,강원도 영월군 내성안길 9,033-373-0662,http://www.ynaesung.es.kr,1,1,1,0,0,5,10,19,0,0,37.1901348452538,128.475113703019
120,강원도교육청,영월교육지원청,쌍룡초등학교병설유치원,공립(병설),김미애,김미애,19940310,19940310,강원도 영월군 무동길 50,033-372-5030,http://www.ssy.es.kr,0,0,0,1,0,0,0,0,9,0,37.1779210133015,128.319200111344
121,강원도교육청,영월교육지원청,주천초등학교병설유치원,공립(병설),신동훈,신동훈,19810301,19810301,강원도 영월군 주천로89번길 14,033-372-3687, ,1,1,1,0,0,7,2,12,0,0,37.2720161926849,128.267611303041
122,강원도교육청,영월교육지원청,마차초등학교병설유치원,공립(병설),김진구,김진구,19850901,19850901,강원도 영월군 밤재로 221,033-372-3007,https://macha.gwe.es.kr,0,0,0,1,0,0,0,0,5,0,37.2574411161287,128.453698693429
123,강원도교육청,영월교육지원청,보덕유치원,사립(사인),박민규,김보경,19950120,19950306,강원도 영월군 보덕사길 34,033-374-7215, ,1,1,1,0,0,9,6,9,0,0,37.1979194498046,128.457484474811
124,강원도교육청,영월교육지원청,연당초등학교병설유치원,공립(병설),이상순,이상순,19810301,19810301,강원도 영월군 연당로 17,033-372-4010,http://www.yeondang.es.kr/,0,0,0,1,0,0,0,0,8,0,37.1865368942882,128.402318818247
125,강원도교육청,영월교육지원청,무릉초등학교병설유치원,공립(병설),이광식,이광식,19810302,19810302,강원도 영월군 중방안길 68,033-372-8068, ,0,0,0,1,0,0,0,0,10,0,37.2903400606252,128.267913962848
126,강원도교육청,영월교육지원청,봉래초등학교병설유치원,공립(병설),이길남,이길남,19820310,19820310,강원도 영월군 중앙로 168-17,033-373-3245,www.bongraeedu.es.kr  ,1,1,1,0,0,11,20,22,0,0,37.1771174714672,128.474978067742
127,강원도교육청,영월교육지원청,구래초등학교병설유치원,공립(병설),이영희,이영희,20000315,20000315,강원도 영월군 교촌길 20,033-378-2903, ,0,0,0,1,0,0,0,0,4,0,37.1418581864777,128.839043588267
128,강원도교육청,영월교육지원청,옥동초등학교병설유치원,공립(병설),엄주열,엄주열,19810302,19810302,강원도 영월군 영월동로 1679,033-372-9051, ,0,0,0,1,0,0,0,0,8,0,37.1304805973432,128.569838746805
129,강원도교육청,영월교육지원청,녹전초등학교병설유치원,공립(병설),임호,임호,19810302,19810302,강원도 영월군 유전길 3-2,033-378-4006, ,0,0,0,1,0,0,0,0,6,0,37.1481624454194,128.681989535065
130,강원도교육청,원주교육지원청,한강유치원,사립(사인),이기평,강정욱,20110301,20110301,강원도 원주시 개운2길 46,033-762-9977,https://hankang.songho.ac.kr,2,4,2,0,0,38,75,44,0,0,37.3383650433866,127.957939046982
131,강원도교육청,원주교육지원청,원주유치원,사립(사인),최헌영,임경애,19161216,19161216,강원도 원주시 일산로 40,033-742-3410,http://www.wonjukid.com,1,1,1,0,0,14,24,22,0,0,37.3476838083907,127.9478243882
132,강원도교육청,원주교육지원청,봉대초등학교병설유치원,공립(병설),김동선 ,김동선 ,19810301,19810301,강원도 원주시 혁신로 300,033-738-1874,http://bongdae.gwe.es.kr,1,1,1,0,0,15,21,22,0,0,37.3340470930928,127.987990890773
133,강원도교육청,원주교육지원청,산내들유치원,사립(사인),정길환,추은진,20140221,20140301,강원도 원주시 성아길 22,337355556, ,1,3,2,0,0,24,75,55,0,0,37.3200244284718,127.83916038313
134,강원도교육청,원주교육지원청,학림유치원,사립(법인),이형모,김승원,19560308,19560308,강원도 원주시 서곡널다리길 18-1,033-763-8417,http://www.haklim.co.kr,1,2,2,0,0,24,30,36,0,0,37.3220667551304,127.936253427175
135,강원도교육청,원주교육지원청,큰나무유치원,사립(사인),권영익,김미정,19920229,19920229,강원도 원주시 북원로2704번길 29-1,033-732-7521, ,2,2,2,0,0,47,39,54,0,0,37.3851233172966,127.950297213814
136,강원도교육청,원주교육지원청,송이유치원,사립(사인),이숭미,강미선,20070301,20070301,강원도 원주시 남원로469번길 25-22,033-765-0733,http://songie.co.kr,2,2,2,0,0,13,19,13,0,0,37.3275039522006,127.94104369862
137,강원도교육청,원주교육지원청,단계초등학교병설유치원,공립(병설),이선아,이선아,19820312,19820312,강원도 원주시 북원로 2387,033-746-3441,http://dan-gye.gwe.es.kr,0,1,1,0,0,0,20,23,0,0,37.3592056690904,127.935953504914
138,강원도교육청,원주교육지원청,흥업초등학교병설유치원,공립(병설),권성자,권성자,19810301,19810301,강원도 원주시 사제로 101,033-763-7814,http://heungup.es.kr,0,0,0,1,0,0,0,0,19,0,37.3069664626507,127.908445129503
139,강원도교육청,원주교육지원청,호저초등학교병설유치원,공립(병설),김경숙,김경숙,19830301,19830301,강원도 원주시 호저로 428,033-732-9907, ,0,0,0,1,0,0,0,0,9,0,37.4117656179788,127.92552089607
140,강원도교육청,원주교육지원청,북원초등학교병설유치원,공립(병설),최철영,최철영,19850309,19850309,강원도 원주시 단구로 60,033-744-9982,http://www.bugwon.es.kr,0,0,1,1,0,0,0,9,3,0,37.3430558838509,127.938347886049
141,강원도교육청,원주교육지원청,중앙초등학교병설유치원,공립(병설),함경환,함경환,19820312,19820312,강원도 원주시 남산로 181,033-738-2471,http://wjjungang.gwe.es.kr/main.do,0,0,1,1,0,0,0,15,12,0,37.3527816082863,127.939085743075
142,강원도교육청,원주교육지원청,이화유치원,사립(사인),허선자,허선자,20070301,20070301,강원도 원주시 천매봉길 94-29,033-764-8100,http://ewhawonju.kidis.co.kr,2,3,2,0,0,45,71,50,0,0,37.3247430815052,127.94323073882
143,강원도교육청,원주교육지원청,서원주초등학교병설유치원,공립(병설),정향순,정향순,20010301,20010301,강원도 원주시 남원로469번길 61,033-766-8856,http://swj.gwe.es.kr,0,0,1,0,0,0,0,19,0,0,37.3271691143692,127.939868162688
144,강원도교육청,원주교육지원청,학성유치원,공립(단설),윤정원,윤정원,20040301,20040302,강원도 원주시 문화촌길 33,033-732-3108,https://haksung.gwe.kg.kr,1,2,2,0,1,15,24,37,0,4,37.3545033527552,127.949992528221
145,강원도교육청,원주교육지원청,단관초등학교병설유치원,공립(병설),허남근,허남근,20040820,20050311,강원도 원주시 단관초교길 14,033-765-1406,http:// www.dan-gwan.es.kr,0,0,2,0,0,0,0,23,0,0,37.3175475862202,127.96355033155
146,강원도교육청,원주교육지원청,서곡초등학교병설유치원,공립(병설),백순옥,백순옥,19810310,19810310,강원도 원주시 용수골길 159,033-763-4897,http://seogok.gwe.es.kr,0,0,1,1,0,0,0,12,16,0,37.2983227063449,127.939029423065
147,강원도교육청,원주교육지원청,반곡별유치원,공립(단설),최종신,최종신,20160301,20160301,강원도 원주시 세계로 90,033-735-1702,http://bangokbyeol.gwe.kg.kr,2,2,3,0,1,33,44,68,0,5,37.3305435535846,127.990256002889
148,강원도교육청,원주교육지원청,도담유치원,사립(사인),홍기춘,홍기춘,20120301,20120301,강원도 원주시 무실새골길 49,033-742-7600,http://dodampreschool.co.kr,3,3,2,0,0,53,56,44,0,0,37.3308467664649,127.935201343073
149,강원도교육청,원주교육지원청,비두초등학교병설유치원,공립(병설),권순철,권순철,19810323,19810323,강원도 원주시 귀문로 1070,033-732-7508, ,0,0,0,1,0,0,0,0,5,0,37.2619038085989,127.8348305177
150,강원도교육청,원주교육지원청,솔샘초등학교병설유치원,공립(병설),이성란,이성란,20140301,20140301,강원도 원주시 무실로 381,033-738-2371,http://solsaem.gwe.es.kr/,1,1,1,0,0,16,23,23,0,0,37.3299703521317,127.929566453623
151,강원도교육청,원주교육지원청,흥양초등학교병설유치원,공립(병설),박대희,박대희,19850305,19850305,강원도 원주시 하초구길 6,033-732-8066, ,0,0,0,1,0,0,0,0,8,0,37.3812640767695,127.996512163289
152,강원도교육청,원주교육지원청,만종초등학교병설유치원,공립(병설),김필교,김필교,19810401,19810401,강원도 원주시 원문로 599,033-747-2774, ,0,0,0,1,0,0,0,0,20,0,37.3556735957301,127.902067606538
153,강원도교육청,원주교육지원청,영지유치원,사립(사인),김영선,김영선,20021118,20030301,강원도 원주시 단구로 399,033-766-7907,http://www.youngjikids.co.kr,3,2,2,0,0,44,38,38,0,0,37.3210946021416,127.955879514588
154,강원도교육청,원주교육지원청,태장초등학교병설유치원,공립(병설),함영수,함영수,19810301,19810301,강원도 원주시 현충로 260,033-746-8454,http://taejang.gwe.es.kr,1,1,1,0,0,12,13,22,0,0,37.3762183237008,127.951445704921
155,강원도교육청,원주교육지원청,황둔초등학교병설유치원,공립(병설),김윤섭,김윤섭,19810310,19810310,강원도 원주시 신림황둔로 1185,033-761-2008, ,0,0,0,1,0,0,0,0,3,0,37.2615481612922,128.185682801732
156,강원도교육청,원주교육지원청,단구초등학교병설유치원,공립(병설),김기성,김기성,19810301,19810301,강원도 원주시 단구초교길 5,033-765-0491,http://www.dangu.es.kr,0,0,1,0,0,0,0,9,0,0,37.322580229381,127.963890767883
157,강원도교육청,원주교육지원청,금빛유치원,사립(사인),권현교,권현교,20120214,20120302,강원도 원주시 입춘내길 32,033-745-4004,http://www.goldkids.kr.,1,2,1,0,0,11,24,22,0,0,37.3358594823188,127.968405297467
158,강원도교육청,원주교육지원청,원주초등학교병설유치원,공립(병설),오제순,오제순,19810301,19810301,강원도 원주시 봉산로 15,033-742-2029,https://wonju.gwe.es.kr,2,1,1,0,1,25,20,18,0,4,37.3478817551092,127.958847691914
159,강원도교육청,원주교육지원청,남원주초등학교병설유치원,공립(병설),전효선,전효선,19990301,19990301,강원도 원주시 늘품로 28,033-766-0931,http://namwonjuie.gwe.es.kr,0,0,1,0,0,0,0,24,0,0,37.3227508175847,127.950982474466
160,강원도교육청,원주교육지원청,한아름유치원,사립(사인),정명옥,정명옥,20050128,20050128,강원도 원주시 송림길 78-58,033-761-0380,https://whankid.modoo.at/,2,0,0,1,0,14,0,0,21,0,37.3293181775631,127.954353654692
161,강원도교육청,원주교육지원청,반계초등학교병설유치원,공립(병설),김용인,김용인,20020313,20020313,강원도 원주시 원문로 2265,033-730-9640,http://www.bangue.es.kr,0,0,0,1,0,0,0,0,5,0,37.2919090277501,127.790841531784
162,강원도교육청,원주교육지원청,반곡드림유치원,사립(사인),오경미,이학영,20160215,20160302,강원도 원주시 반곡길 133,033-735-3309, ,0,0,1,3,0,0,0,26,63,0,37.3319745372499,127.968848616217
163,강원도교육청,원주교육지원청,교동초등학교병설유치원,공립(병설),임영길,임영길,19810310,19810310,강원도 원주시 명륜로 9,033-764-1093,http://www.wjgd.es.kr,0,1,1,0,0,0,8,6,0,0,37.3389582032858,127.947069139628
164,강원도교육청,원주교육지원청,태봉초등학교병설유치원,공립(병설),김응섭,김응섭,20020301,20020301,강원도 원주시 흥양로51번길 113,033-738-2590,http://www.wjtaebong.es.kr,0,1,1,0,0,0,8,24,0,0,37.3859201650328,127.956464354063
165,강원도교육청,원주교육지원청,구곡초등학교병설유치원,공립(병설),김인자,김인자,20070301,20070301,강원도 원주시 늘품로 64,033-766-9724, ,0,1,1,0,0,0,17,21,0,0,37.3248837900291,127.952478981519
166,강원도교육청,원주교육지원청,그린나래유치원,사립(사인),김정선,이화영,20170221,20170302,강원도 원주시 양지뜰1길 21,033-733-7171,http://www.gnkg.kr,2,1,1,0,0,25,22,20,0,0,37.3280790785674,127.983361744896
167,강원도교육청,원주교육지원청,강릉원주대학교부설유치원,국립,반선섭,최혜진,19970227,19970331,강원도 원주시 남원로 150,033-760-8241,http://gwnuchild.ac.kr,1,1,1,0,1,15,20,17,0,3,37.3051724483904,127.92214733867
168,강원도교육청,원주교육지원청,예그랑유치원,사립(사인),이미옥,이미옥,20070301,20070301,강원도 원주시 삼광2길 11-6,033-743-8007, ,2,3,3,0,0,48,50,70,0,0,37.342543425267,127.96497735413
169,강원도교육청,원주교육지원청,소화유치원,사립(사인),김옥숙,김옥숙,19370310,19670217,강원도 원주시 원일로 27,033-765-3354, ,1,1,1,0,0,9,13,7,0,0,37.3456632534435,127.952600119146
170,강원도교육청,원주교육지원청,명륜초등학교병설유치원,공립(병설),방제철,방제철,19810301,19810301,강원도 원주시 행구로 25,033-761-8193,http://www.myengryun.es.kr,1,1,1,0,0,14,16,21,0,0,37.342023005072,127.959272770543
171,강원도교육청,원주교육지원청,동화초등학교병설유치원,공립(병설),박순향,박순향,20040301,20040301,강원도 원주시 왕건로 83,033-734-1654,http://www.dong-hwa.es.kr/,0,1,1,0,0,0,11,13,0,0,37.3274788009998,127.828578051564
172,강원도교육청,원주교육지원청,지정초등학교병설유치원,공립(병설),정장호,정장호,19810310,19810310,강원도 원주시 지정로 103,033-731-6063,http://www.kwjijeong.es.kr,0,0,0,1,0,0,0,0,15,0,37.3482457933712,127.845452612093
173,강원도교육청,원주교육지원청,스마트유치원,사립(사인),구자순,이은실,20071123,20150301,강원도 원주시 이화3길 16-8,033-733-2555,http://www.smart-ii.com,1,2,2,0,0,14,29,29,0,0,37.3377208324604,127.934348517465
174,강원도교육청,원주교육지원청,예지유치원,사립(사인),윤홍,윤문홍,20120116,20120301,강원도 원주시 단관공원길 102,033-763-9089, ,3,2,2,1,0,52,49,48,21,0,37.3149861230218,127.957068083035
175,강원도교육청,원주교육지원청,봉화산숲유치원,사립(사인),전수희,전수희,20121121,20130301,강원도 원주시 서원대로86번길 52,033-744-7088,http://cafe.naver.com/bhskindergarden,2,2,2,0,0,44,50,47,0,0,37.3496007883289,127.919825777174
176,강원도교육청,원주교육지원청,둔둔초등학교병설유치원,공립(병설),김기섭,김기섭,19990301,19990315,강원도 원주시 버덩마을길 7,033-747-7688,http://www.dunx2.es.kr,0,0,0,7,0,0,0,0,7,0,37.4466626480795,127.979301860446
177,강원도교육청,원주교육지원청,소초초등학교병설유치원,공립(병설),이연택,이연택,19810305,19810305,강원도 원주시 평장안골1길 15,033-732-9051,http://www.socho.es.kr,0,0,0,1,0,0,0,0,8,0,37.417671429319,128.004615772708
178,강원도교육청,원주교육지원청,버들초등학교병설유치원,공립(병설),이병필,이병필,20160301,20160301,강원도 원주시 삼보로 80,033-769-6780,http://beodeul.gwe.es.kr/main.do,1,1,1,0,0,16,20,20,0,0,0,0
179,강원도교육청,원주교육지원청,일산초등학교병설유치원,공립(병설),장숙자,장숙자,19810310,19810310,강원도 원주시 일산초교길 1,033-742-1118, ,0,0,0,1,0,0,0,0,9,0,37.3463726754866,127.942196882147
180,강원도교육청,원주교육지원청,문막초등학교병설유치원,공립(병설),김동희,김동희,20090302,20090302,강원도 원주시 문막읍 건등로 28-11,033-734-7791,http://www.munmak.es.kr/,0,0,0,1,0,0,0,0,14,0,37.3129167393971,127.820504201497
181,강원도교육청,원주교육지원청,성균관유치원,사립(사인),강은진,김미혜,20171113,20180301,강원도 원주시 하차면길 25,033-746-2589, ,2,2,2,0,0,42,41,55,0,0,37.361605533132,127.89476790763
182,강원도교육청,원주교육지원청,장양초등학교병설유치원,공립(병설),박성덕,박성덕,19970301,19970301,강원도 원주시 북원로 2868,033-734-4168, ,0,0,0,1,0,0,0,0,8,0,37.3985814798845,127.953264706525
183,강원도교육청,원주교육지원청,우산초등학교병설유치원,공립(병설),임연신,임연신,19810302,19810302,강원도 원주시 우산초교길 84,033-735-3925,http://wjusan.gwe.es.kr,0,0,0,10,0,0,0,0,10,0,37.3696062773054,127.932615075518
184,강원도교육청,원주교육지원청,무실초등학교병설유치원,공립(병설),이윤모,이윤모,20050301,20200301,강원도 원주시 만대로 155,033-742-2695,http://musil.gwe.es.kr/,1,1,1,0,0,12,21,16,0,0,37.3354300185176,127.921659323408
185,강원도교육청,원주교육지원청,무실빛유치원,공립(단설),오순환,오순환,20170301,20170301,강원도 원주시 지니기길 11-18,033-738-4770,http://musilbit.gwe.kg.kr,1,1,2,0,1,16,21,42,0,5,37.324381558852,127.923707578089
186,강원도교육청,원주교육지원청,청담유치원,사립(사인),장해숙,장해숙,20140129,20140301,강원도 원주시 귀론길 45-1,033-766-3456, ,1,2,2,1,0,19,56,53,19,0,37.3144974753736,127.952796431293
187,강원도교육청,원주교육지원청,성무유치원,사립(사인),김철수,박경숙,19860110,19860110,강원도 원주시 고문골길 77-47,033-734-2104,http://www.sungmu.org/,2,2,2,0,0,12,18,21,0,0,37.3402402481733,128.01111080438
188,강원도교육청,원주교육지원청,치악초등학교병설유치원,공립(병설),심영택,심영택,20200301,20200301,강원도 원주시 한지공원길 77,033-762-8267, ,1,0,0,1,0,8,0,0,8,0,37.3316162090793,127.93943330687
189,강원도교육청,원주교육지원청,섬강초등학교병설유치원,공립(병설),손상달,손상달,20190301,20190301,강원도 원주시 기업도시로 1,033-904-1010, ,1,1,1,0,1,13,20,20,0,5,37.3771532662319,127.891123089324
190,강원도교육청,원주교육지원청,성불유치원,사립(사인),김효종,신수진,19900214,19900214,강원도 원주시 남원로527번길 82-9,033-762-1729, ,1,2,1,0,0,20,28,22,0,0,37.334934835277,127.942777620026
191,강원도교육청,원주교육지원청,반곡초등학교병설유치원,공립(병설),안병남,안병남,20080301,20080301,강원도 원주시 동부순환로 247,033-730-9131,http://www.bangok.es.kr/,1,1,1,0,0,16,22,24,0,0,37.3373417458981,127.973034898304
192,강원도교육청,원주교육지원청,제일유치원,사립(법인),송건섭,주선희,19980122,19980122,강원도 원주시 서원대로 308-19,033-766-4750, ,2,1,1,0,0,25,17,18,0,0,37.3357274787908,127.939670242165
193,강원도교육청,원주교육지원청,동화나라유치원,사립(사인),이혜숙.이향옥,이혜숙,19970301,19970301,강원도 원주시 금불4길 29,033-745-2236, ,2,2,2,0,0,25,44,49,0,0,37.3494950948327,127.932827713752
194,강원도교육청,원주교육지원청,프라임상상유치원,사립(사인),권순영,권순영,20141119,20150301,강원도 원주시 혁신로 153,033-765-1279, ,2,2,2,0,0,47,40,52,0,0,37.3230766039862,127.990453369329
195,강원도교육청,원주교육지원청,문막성모유치원,사립(사인),안순희,안순희,19820301,19820301,강원도 원주시 건등로 10-18,033-734-5722,http://cafe.daum.net/wonjusungmo,1,1,1,0,0,10,12,16,0,0,37.3105063454842,127.818241703563
196,강원도교육청,원주교육지원청,자연유치원,사립(사인),김권석,김소진,20040302,20040302,강원도 원주시 만대로 117,033-735-6166,http://www.jkid.org,2,4,3,0,0,48,90,81,0,0,37.3375884901027,127.920242678522
197,강원도교육청,원주교육지원청,푸른자연유치원,사립(사인),김권석,김권석,20120301,20120301,강원도 원주시 무실본동길 9,033-735-8448, ,3,3,3,0,0,72,74,77,0,0,37.3374947537341,127.931872004728
198,강원도교육청,원주교육지원청,원주세종유치원,사립(사인),이혜리,이헤리,19860201,19860201,강원도 원주시 무실로130번길 5-25,033-745-7278, ,1,0,0,1,0,9,0,0,9,0,37.3426299554384,127.941243260754
199,강원도교육청,원주교육지원청,나영유치원,사립(사인),김춘식,나영란,19981106,19981106,강원도 원주시 현충로 234-23,033-742-9375,https://nayoung.kidsnote.ac,2,2,2,0,0,46,40,46,0,0,37.3735746092328,127.953797451239
200,강원도교육청,인제교육지원청,서화초등학교병설유치원,공립(병설),이홍우,이홍우,19810301,19810301,강원도 인제군 금강로 1490,033-462-4002,http://inje-seohwa.kwije.go.kr,0,1,1,0,0,0,5,17,0,0,38.2292553706505,128.208529891038
201,강원도교육청,인제교육지원청,하늘내린유치원,공립(단설),김순희,김순희,20120301,20120301,강원도 인제군 인제로219번길 27,033-461-7105,https://hnnr.gwe.kg.kr/main.do,1,2,2,0,1,15,42,43,0,5,38.0717471970641,128.172082980601
202,강원도교육청,인제교육지원청,하남초등학교병설유치원,공립(병설),김진규,김진규,19840906,19840906,강원도 인제군 내린천로 3195,033-462-4986, ,0,0,0,1,0,0,0,0,6,0,37.9109729306807,128.285968525697
203,강원도교육청,인제교육지원청,기린초등학교병설유치원,공립(병설),이성욱,이성욱,20091017,20091017,강원도 인제군 기린로 76,033-461-7032, ,1,1,1,0,0,6,11,19,0,0,37.9583248451447,128.319407285412
204,강원도교육청,인제교육지원청,월학초등학교병설유치원,공립(병설),전영경,전영경,19810316,19810316,강원도 인제군 금강로 732,033-462-9677,http://www.wolhak.es.kr/,0,0,0,1,0,0,0,0,6,0,38.1707471242913,128.209338485625
205,강원도교육청,인제교육지원청,어론초등학교병설유치원,공립(병설),이해규,이해규,20040301,20040301,강원도 인제군 설악로 198,033-461-4815, ,0,0,1,0,0,0,0,14,0,0,37.9321124391932,128.061760156702
206,강원도교육청,인제교육지원청,귀둔초등학교병설유치원,공립(병설),황동욱,황동욱,19840609,19840609,강원도 인제군 점봉산로 51,033-463-2047,https://guidoon.gwe.es.kr/,0,0,0,1,0,0,0,0,5,0,38.0172049434802,128.360794154093
207,강원도교육청,인제교육지원청,서화초등학교서성분교장병설유치원,공립(병설),이홍우,이홍우,19910301,19910311,강원도 인제군 금강로 1801-42,033-463-4209,https://seosung.gwe.es.kr/main.do,0,0,0,1,0,0,0,0,1,0,38.2599148154403,128.209245843462
208,강원도교육청,인제교육지원청,한계초등학교병설유치원,공립(병설),이강엽,이강엽,19840906,19840906,강원도 인제군 한계1길 33,033-463-0891,http://hangye.gwe.es.kr/,0,1,0,1,0,0,8,0,7,0,38.1404523469525,128.257708324274
209,강원도교육청,인제교육지원청,상남초등학교병설유치원,공립(병설),손영철,손영철,19810310,19810310,강원도 인제군 내린천로 2548,033-461-6476,http://sangnam6706.gwe.es.kr,0,0,0,1,0,0,0,0,6,0,37.873065659504,128.260698755751
210,강원도교육청,인제교육지원청,용대초등학교병설유치원,공립(병설),이도형 ,이도형,19810316,19810316,강원도 인제군 미시령로 1031,033-480-0250,http://yongdae.gwe.es.kr,0,0,0,1,0,0,0,0,5,0,38.1955987602349,128.329394045522
211,강원도교육청,인제교육지원청,부평초등학교병설유치원,공립(병설),양선희,양선희,19810301,19810301,강원도 인제군 신남로94번길 7,033-461-7847, ,0,0,1,1,1,0,0,10,10,2,37.9697666140965,128.083912513751
212,강원도교육청,인제교육지원청,원통초등학교병설유치원,공립(병설),김영록,김영록,19810310,19810310,강원도 인제군 원통로 129,033-463-6763, ,1,1,1,0,0,11,16,20,0,0,38.1203347573344,128.201060599495
213,강원도교육청,정선교육지원청,북평초등학교병설유치원,공립(병설),양인자,양인자,19810308,19810308,강원도 정선군 서동로 2170,033-562-7064,http://www.pukpyung.es.kr,0,0,0,1,0,0,0,0,10,0,37.4548844986054,128.674493884217
214,강원도교육청,정선교육지원청,갈래초등학교병설유치원,공립(병설),이양원,이양원,19810301,19810301,강원도 정선군 고한로 300,033-591-1341,http://kallae.gwe.es.kr,0,0,0,1,0,0,0,0,16,0,37.1948766917396,128.865734344106
215,강원도교육청,정선교육지원청,증산초등학교병설유치원,공립(병설),정영황,정영황,19820222,19820222,강원도 정선군 민둥산로 12,033-591-5068, ,0,0,0,1,0,0,0,0,4,0,37.2548771865786,128.780798283676
216,강원도교육청,정선교육지원청,화동초등학교병설유치원,공립(병설),석정기,석정기,19810310,19810310,강원도 정선군 그림바위길 66-20,033-562-2036,http://jshwadong.gwe.es.kr/main.do,0,0,0,1,0,0,0,0,4,0,37.3386837507513,128.788013704548
217,강원도교육청,정선교육지원청,고한초등학교병설유치원,공립(병설),지근석,지근석,19810309,19810309,강원도 정선군 고한4길 11,033-804-7507,http://gohan.gwe.es.kr/main.do,0,0,0,1,0,0,0,0,6,0,37.2029177523559,128.853337834125
218,강원도교육청,정선교육지원청,반야유치원,사립(사인),임수우,함영화,20070115,20070115,강원도 정선군 비봉로 13,033-562-6700, ,1,1,2,0,0,17,26,26,0,0,37.380962566104,128.659681671582
219,강원도교육청,정선교육지원청,임계초등학교병설유치원,공립(병설),이교진,이교진,19810301,19810301,강원도 정선군 송계1길 7,033-562-6026, ,0,0,0,1,0,0,0,0,20,0,37.4964106450265,128.848350832737
220,강원도교육청,정선교육지원청,남선초등학교남창분교장병설유치원,공립(병설),이재익,이재익,19840615,19840615,강원도 정선군 광락로 22,033-591-1228, ,0,0,0,1,0,0,0,0,2,0,37.3240596140009,128.713840136004
221,강원도교육청,정선교육지원청,남선초등학교병설유치원,공립(병설),이재익,이재익,19810309,19810309,강원도 정선군 칠현로 70,033-591-1034,https://www.jsnamseon.es.kr,0,0,0,1,0,0,0,0,8,0,37.2693063818037,128.740950023498
222,강원도교육청,정선교육지원청,사북초등학교병설유치원,공립(병설),신권식,신권식,19810301,19810301,강원도 정선군 소금강로 3561,033-592-5526,http://www.sabuk.es.kr/,1,1,1,0,1,9,14,18,0,4,37.22858858694,128.834237749443
223,강원도교육청,정선교육지원청,함백초등학교병설유치원,공립(병설),양승현,양승현,19810309,19910225,강원도 정선군 조동6길 17-12,033-378-6500,http://www.hambaek.es.kr,0,0,0,1,0,0,0,0,5,0,37.2158063667588,128.67333211251
224,강원도교육청,정선교육지원청,예미초등학교병설유치원,공립(병설),이재숙,이재숙,19810310,19810310,강원도 정선군 의림로 327,033-378-0008,https://yemi.gwe.es.kr,0,0,0,1,0,0,0,0,4,0,37.2210103499045,128.645388930237
225,강원도교육청,정선교육지원청,정선유치원,공립(단설),배소영,배소영,20110901,20121221,강원도 정선군 와평2길 11,033-563-3236,http://jeongseon.gwe.kg.kr,1,1,2,0,1,9,17,24,0,1,37.3700820927071,128.686222239496
226,강원도교육청,정선교육지원청,여량초등학교병설유치원,공립(병설),왕복철,왕복철,19810301,19810301,강원도 정선군 서동로 2950,033-562-4014,http://www.yeoryang.es.kr,0,0,0,1,0,0,0,0,8,0,37.471345707839,128.727724461027
227,강원도교육청,정선교육지원청,남평초등학교병설유치원,공립(병설),황산술,황산술,19900301,19900301,강원도 정선군 송석길 137,033-562-3007,http://www.nampyung.es.kr,0,0,0,1,0,0,0,0,5,0,37.4312109269511,128.662868878645
228,강원도교육청,철원교육지원청,근남초등학교병설유치원,공립(병설),김영호,김영호,19970301,19970301,강원도 철원군 육단2길 34,033-458-1629,http://gnamcw.gwe.es.kr,0,0,0,1,0,0,0,0,17,0,38.2383822588899,127.470099159798
229,강원도교육청,철원교육지원청,와수초등학교병설유치원,공립(병설),이재학,이재학,19810803,19810901,강원도 철원군 와수로 119,033-458-4238, ,0,1,1,0,0,0,14,22,0,0,38.2357242344371,127.43514032716
230,강원도교육청,철원교육지원청,나래유치원,사립(사인),손철호,손철호,19960215,19960215,강원도 철원군 아랫삼성길 29-1,033-452-0102, ,1,0,0,1,0,16,0,0,16,0,38.162229011481,127.317583804562
231,강원도교육청,철원교육지원청,토성초등학교병설유치원,공립(병설),황규용,황규용,19810305,19810305,강원도 철원군 토성길 43,033-458-1179, ,0,0,0,1,0,0,0,0,4,0,38.2410356818179,127.345594756456
232,강원도교육청,철원교육지원청,서면초등학교병설유치원,공립(병설),최문심,최문심,19970301,19970301,강원도 철원군 자등로 634,033-458-0686, ,0,0,0,1,0,0,0,0,18,0,38.1684761533777,127.416934128577
233,강원도교육청,철원교육지원청,신철원초등학교병설유치원,공립(병설),함정길,함정길,19870226,19870302,강원도 철원군 명성로139번안길 45,033-452-7513,http://scw.gwe.es.kr,1,1,1,0,0,10,22,24,0,0,38.1475218872343,127.305554350205
234,강원도교육청,철원교육지원청,새들유치원,공립(단설),김미옥,김미옥,20110901,20110901,강원도 철원군 금학로 297-18,033-455-8516,http://sd.gwe.kg.kr,1,2,2,0,1,14,26,45,0,6,38.213500874345,127.211178688129
235,강원도교육청,철원교육지원청,문혜초등학교병설유치원,공립(병설),이영숙,이영숙,19810313,19810313,강원도 철원군 태봉로 1556,033-452-8538,https://mooncw.gwe.es.kr/boardCnts/list.do?boardID=93726&m=0701&s=mooncwes,0,0,0,1,0,0,0,0,6,0,38.1868443191755,127.318070401556
236,강원도교육청,철원교육지원청,청양초등학교병설유치원,공립(병설),곽영일,곽영일,19810301,19810301,강원도 철원군 청양로 381-19,033-458-0622,http://chy.gwcwed.go.kr,0,0,0,1,0,0,0,0,18,0,38.2453319718803,127.377290069518
237,강원도교육청,철원교육지원청,내대초등학교병설유치원,공립(병설),류재화,류재화,19810301,19810301,강원도 철원군 두루미로 422-21,033-452-5598, ,0,0,0,1,0,0,0,0,8,0,38.2059238388768,127.297492480224
238,강원도교육청,철원교육지원청,김화초등학교병설유치원,공립(병설),양광석,양광석,19820305,19820310,강원도 철원군 김화로 551,033-458-4288,http://gimhcw.gwe.es.kr,0,0,0,1,0,0,0,0,6,0,38.252409770348,127.413064720765
239,강원도교육청,춘천교육지원청,봉의초등학교병설유치원,공립(병설),최흥식,최흥식,19940301,19940301,강원도 춘천시 춘천로 141,033-256-7804,http://bongeuy.gwe.es.kr,1,1,1,0,1,16,20,22,0,4,37.8758768860024,127.729893530373
240,강원도교육청,춘천교육지원청,천전초등학교병설유치원,공립(병설),김윤주,김윤주,19810318,19810318,강원도 춘천시 율문1길 16-9,033-243-7404,www.cheonjeon.es.kr,0,0,0,1,0,0,0,0,8,0,37.9274657733823,127.746120470721
241,강원도교육청,춘천교육지원청,춘천유치원,사립(사인),김형기,김형기,19940926,19940926,강원도 춘천시 후석로228번길 24,033-256-8416,http://cafe.daum.net/cckg2568416,1,1,1,0,0,6,23,26,0,0,37.8720104727335,127.756002164489
242,강원도교육청,춘천교육지원청,예원유치원,사립(사인),백옥순,백옥순,20060301,20060301,강원도 춘천시 영서로2151번길 16-11,033-257-2233,http://yewonkids.net,2,1,2,0,0,39,23,41,0,0,37.8564145821512,127.734243012207
243,강원도교육청,춘천교육지원청,동내초등학교병설유치원,공립(병설),방마리,방마리,19820325,19820325,강원도 춘천시 동내로 131,070-5138-0619,http://www.dongnae.gwe.es.kr,0,1,1,0,0,0,21,22,0,0,37.8512944423845,127.765792565982
244,강원도교육청,춘천교육지원청,오동초등학교병설유치원,공립(병설),최수호,최수호,19810319,19810319,강원도 춘천시 장본길 74,033-242-1715, ,0,0,0,1,0,0,0,0,18,0,37.9518404156017,127.758003989039
245,강원도교육청,춘천교육지원청,라온유치원,사립(사인),이경아,이선희,20160120,20160301,강원도 춘천시 장학길 18,033-241-2410,http://www.laonk-g.com/,1,2,1,0,0,11,21,15,0,0,37.8944929495423,127.756380748458
246,강원도교육청,춘천교육지원청,성심유치원,사립(사인),이해숙,이해숙,19780128,19780128,강원도 춘천시 약사고개길 23,033-255-7443,http://www.sungsim7443@hanmail.net,1,1,1,0,0,14,23,25,0,0,37.8766936810009,127.726950388015
247,강원도교육청,춘천교육지원청,새봄유치원,공립(단설),원호영,원호영,20030901,20030901,강원도 춘천시 중앙로113번길 12,033-241-9872,http://saebom.gwe.kg.kr/,1,2,2,0,0,15,44,47,0,0,37.8755598724935,127.722602015217
248,강원도교육청,춘천교육지원청,석사초등학교병설유치원,공립(병설),변해철,변해철,19810221,19810302,강원도 춘천시 공지로 108-17,033-262-1671,http://www.suksa.es.kr/,0,0,1,0,0,0,0,17,0,0,37.8581574402467,127.74949963247
249,강원도교육청,춘천교육지원청,광판초등학교병설유치원,공립(병설),임남호,임남호,19810301,19810301,강원도 춘천시 김유정로 159-12,033-263-3460,http://gwangpan.gwe.es.kr,0,0,0,1,0,0,0,0,6,0,37.7308573424116,127.699227673866
250,강원도교육청,춘천교육지원청,서상초등학교병설유치원,공립(병설),이종암,이종암,19810310,19810310,강원도 춘천시 박사로 1348,033-244-2177,http://seosang.gwe.es.kr,0,0,1,1,0,0,0,7,15,0,37.9291720998278,127.707274387326
251,강원도교육청,춘천교육지원청,꿈에그린유치원,사립(사인),이명종,홍근민,20131021,20140301,강원도 춘천시 동내로 168,033-264-7003, ,2,2,2,0,0,27,32,35,0,0,37.8497044709243,127.769235253298
252,강원도교육청,춘천교육지원청,지촌초등학교지암분교장병설유치원,공립(병설),최광석,최광석,20090301,20090301,강원도 춘천시 화악지암길 431,033-243-1012, ,0,0,0,1,0,0,0,0,3,0,37.9812506805555,127.607087878209
253,강원도교육청,춘천교육지원청,추곡초등학교병설유치원,공립(병설),최종태,최종태,19850301,19850301,강원도 춘천시 북산로 34,033-243-1505, ,0,0,0,1,0,0,0,0,3,0,38.0244095653738,127.882291426006
254,강원도교육청,춘천교육지원청,상천초등학교병설유치원,공립(병설),민혜자,민혜자,19790201,19790201,강원도 춘천시 상천2길 19,033-241-8511,https://c-sangchon.gwe.es.kr,0,0,0,1,0,0,0,0,8,0,37.9336076061132,127.785829575649
255,강원도교육청,춘천교육지원청,꿈나무유치원,사립(사인),권은숙,권은숙,19840305,20110301,강원도 춘천시 만천로 247,033-251-1555,http://www.ccdreamkids.com,2,1,2,0,0,44,25,45,0,0,37.8905135883607,127.754157341622
256,강원도교육청,춘천교육지원청,삼운사유치원,사립(사인),김창근,최정희,19930226,19940304,강원도 춘천시 후석로441번길 12,033-257-6231,http://www.samwoonkids.kr,2,2,2,0,0,41,45,44,0,0,37.8881190899201,127.741452678867
257,강원도교육청,춘천교육지원청,자연유치원,사립(사인),이관형,이관형,19930402,19930402,강원도 춘천시 복골길 29,033-241-5511,http://www.jysince93.net,0,1,1,1,0,0,26,27,20,0,37.8757986221058,127.754132086523
258,강원도교육청,춘천교육지원청,우리유치원,사립(사인),김용한,김은아,20050301,20050301,강원도 춘천시 스무숲길 22,033-261-6177, ,3,3,2,0,0,66,63,46,0,0,37.8487307884572,127.750124080659
259,강원도교육청,춘천교육지원청,섬머힐유치원,사립(사인),소영숙,소영숙,20070301,20070301,강원도 춘천시 만천로199번길 11,033-254-1117,http://www.smh.kg.kr,1,2,1,0,0,14,28,27,0,0,37.8859920196704,127.753987771194
260,강원도교육청,춘천교육지원청,소양초등학교병설유치원,공립(병설),경혜순,경혜순,19800301,19800301,강원도 춘천시 충열로 134,033-255-1493,http://c-soyangcho.es.kr/,0,0,1,0,0,0,0,11,0,0,37.9053583577323,127.73988640477
261,강원도교육청,춘천교육지원청,두란노유치원,사립(사인),김상섭,임은영,20131114,20140303,강원도 춘천시 우두상리4길 38,033-817-2377,http://ccduranno.kidis.co.kr/,3,2,2,0,0,56,52,56,0,0,37.9126973851957,127.74345985999
262,강원도교육청,춘천교육지원청,당림초등학교병설유치원,공립(병설),유은주,유은주,19991027,19991027,강원도 춘천시 당숲안길 81,033-263-8663, ,0,0,0,1,0,0,0,0,4,0,37.8378457087121,127.608174832921
263,강원도교육청,춘천교육지원청,우석초등학교병설유치원,공립(병설),심미성,심미성,20200301,20200301,강원도 춘천시 애막골길16번길 6,033-261-9145,http://wooseok.gwe.es.kr,0,1,1,0,0,0,20,21,0,0,37.8646655439284,127.749690778979
264,강원도교육청,춘천교육지원청,봄봄유치원,공립(단설),박선혜,박선혜,20170301,20170301,강원도 춘천시 경춘로 2007,033-818-4990,http://bombom.gwe.kg.kr/main.do,1,2,2,0,1,16,42,45,0,4,37.8349316010728,127.71144927455
265,강원도교육청,춘천교육지원청,만천유치원,공립(단설),최옥희,최옥희,20170301,20170301,강원도 춘천시 금베이길 15-7,033-818-4980,http://mckids.gwe.kg.kr/main.do,1,1,2,0,1,16,19,48,0,3,37.876053975883,127.779889262929
266,강원도교육청,춘천교육지원청,후평숲속유치원,사립(사인),김병육,김인숙,20160118,20160301,강원도 춘천시 후만로 129,033-255-0880,http://www.hpsskid.co.kr,3,4,3,0,0,60,74,81,0,0,37.8782546569673,127.758365614474
267,강원도교육청,춘천교육지원청,한림성심대학교부속한림유치원,사립(법인),우형식,최경애,19990401,19990401,강원도 춘천시 장학길 48,033-240-9360,http://hallymkinder.hsc.ac.kr,2,2,2,0,0,41,49,44,0,0,37.8977761321827,127.756726775045
268,강원도교육청,춘천교육지원청,무궁화유치원,사립(사인),정병국,정병국,19860119,19860119,강원도 춘천시 미나리길11번길 11,033-256-2567,http://www.mghkids.co.kr,2,2,2,0,0,46,52,55,0,0,37.8588990287927,127.728639394128
269,강원도교육청,춘천교육지원청,예초유치원,사립(사인),김명희,최지안,20120301,20120301,강원도 춘천시 외솔길19번길 38-12,033-264-2800,http://yecho.co.kr/,3,2,4,0,0,49,41,81,0,0,37.8566297477884,127.753899818057
270,강원도교육청,춘천교육지원청,명문유치원,사립(사인),권용자,이정민,20160301,20160301,강원도 춘천시 안마산로 224-1,033-262-6611,http://www.myungmoonkid.net,1,3,1,0,0,16,43,10,0,0,37.8481487193012,127.737856994344
271,강원도교육청,춘천교육지원청,청용유치원,사립(사인),김경숙,정은희,20060301,20060301,강원도 춘천시 춘주로 162,033-251-9449, ,2,1,2,0,0,46,25,54,0,0,37.8576622882342,127.726369473922
272,강원도교육청,춘천교육지원청,교동초등학교병설유치원,공립(병설),장승조,장승조,19860314,19860314,강원도 춘천시 교동길 29,033-255-6794,http://cckd.gwe.es.kr/,2,2,1,0,1,29,41,23,0,5,37.8811187686534,127.737396169938
273,강원도교육청,춘천교육지원청,남산초등학교병설유치원,공립(병설),정희경,정희경,19810301,19810301,강원도 춘천시 한치로 59,033-262-1667,http://www.c-namsan.es.kr,0,0,1,1,0,0,0,5,12,0,37.7932518174074,127.645429185457
274,강원도교육청,춘천교육지원청,남산초등학교서천분교장병설유치원,공립(병설),정희경,정희경,19850302,19850302,강원도 춘천시 서백길 152,033-263-0238,http://www.c-seocheon.es.kr,0,0,0,1,0,0,0,0,2,0,37.8353938969665,127.555334376213
275,강원도교육청,춘천교육지원청,금산초등학교병설유치원,공립(병설),남정태,남정태,19810310,19810310,강원도 춘천시 금산2길 21,033-243-2009,http://www.c-gsan.es.kr/,0,0,0,1,0,0,0,0,8,0,37.9034617505672,127.699391205539
276,강원도교육청,춘천교육지원청,신동초등학교병설유치원,공립(병설),유현숙,유현숙,19810301,19810301,강원도 춘천시 영서로 3116,033-243-4362, ,0,0,0,1,0,0,0,0,14,0,37.9304941287818,127.723381667386
277,강원도교육청,춘천교육지원청,열린유치원,사립(사인),팽미정,팽미정 ,19960415,19960415,강원도 춘천시 충혼길24번길 3-6,033-241-1012,http://ccokg.com,3,3,3,0,0,59,63,73,0,0,37.8620325555436,127.721133526505
278,강원도교육청,춘천교육지원청,송화초등학교병설유치원,공립(병설),김광수,김광수,19820308,19820308,강원도 춘천시 춘화로 510-5,033-244-1263,http://www.songh.gwe.es.kr/,0,0,0,1,0,0,0,0,6,0,37.9879184200742,127.708052013578
279,강원도교육청,춘천교육지원청,조양초등학교병설유치원,공립(병설),윤문식,윤문식,19820325,19820325,강원도 춘천시 조양길 257,033-261-2007,http://www.joyang.es.kr,0,0,0,1,0,0,0,0,5,0,37.7512718118976,127.795636374985
280,강원도교육청,춘천교육지원청,은빛유치원,사립(사인),반복동,반은경,19990909,20000302,강원도 춘천시 거두택지길 47,033-262-8022,https://eunbit1111.wixsite.com/eunbit-i,2,2,1,0,0,16,26,10,0,0,37.8546130864115,127.756192264336
281,강원도교육청,춘천교육지원청,미래숲유치원,사립(사인),노명희,노명희,20060301,20060301,강원도 춘천시 신샘밭로 159,033-244-8508,http://www.mrsu.or.kr,2,2,1,0,0,26,36,28,0,0,37.9226159266276,127.728404431354
282,강원도교육청,춘천교육지원청,장학초등학교병설유치원,공립(병설),변정순,변정순,20150301,20150302,강원도 춘천시 춘천로449번길 33,033-245-7283,https://janghak.gwe.es.kr/main.do,0,1,2,0,1,0,20,47,0,3,37.8952147517019,127.752236549671
283,강원도교육청,태백교육지원청,하늘빛유치원,공립(단설),권혜경,권혜경,20160301,20160301,강원도 태백시 서학로 997,033-550-9610,http://haneulbit.gwe.kg.kr/,2,2,2,0,0,30,39,48,0,0,37.1564389127787,128.97477077345
284,강원도교육청,태백교육지원청,태백초등학교병설유치원,공립(병설),오초옥,오초옥,19810301,19810301,강원도 태백시 태백로 1811,033-581-3766,http://tbp.kwtbe.go.kr,0,0,0,1,0,0,0,0,5,0,37.1085784067397,129.005232035806
285,강원도교육청,태백교육지원청,장성초등학교병설유치원,공립(병설),황보은경,황보은경,19820301,19820301,강원도 태백시 보드미길 26,033-581-5810,http://www. kd-jangsung.kwtbe.go.kr,0,0,0,1,0,0,0,0,2,0,37.1026793303036,129.005768432201
286,강원도교육청,태백교육지원청,천사유치원,사립(법인),조규남,김검년,19960205,19960205,강원도 태백시 장성1길 78-5,033-581-8244, ,1,1,1,0,0,4,17,13,0,0,37.1005880569998,129.005543551597
287,강원도교육청,태백교육지원청,철암초등학교병설유치원,공립(병설),임자선,임자선,19810301,19810301,강원도 태백시 동태백로 584,033-582-1435,http://cheolam.gwe.es.kr/,0,0,0,1,0,0,0,0,7,0,37.1217467491017,129.042922423418
288,강원도교육청,태백교육지원청,동점초등학교병설유치원,공립(병설),차정환,차정환,19820310,19820310,강원도 태백시 방터골1길 59,033-582-7976,http://dongjum.kwtbe.go.kr/,0,0,0,1,0,0,0,0,6,0,37.1005756360175,129.049864875585
289,강원도교육청,태백교육지원청,통리초등학교병설유치원,공립(병설),최규남,최규남,19810301,19810301,강원도 태백시 통골2길 9,033-550-0100,http://tongri.gwe.es.kr,0,0,0,1,0,0,0,0,8,0,37.1667352748327,129.035465216067
290,강원도교육청,태백교육지원청,태사랑유치원,공립(단설),김국민,김국민,20100301,20100301,강원도 태백시 태백로 802,033-554-0218,http://taesarang.gwe.kg.kr,1,2,2,0,1,14,27,31,0,5,37.1800357719737,128.982443869201
291,강원도교육청,태백교육지원청,미동초등학교병설유치원,공립(병설),최돈준,최돈준,20100901,20100901,강원도 태백시 역둔원동로 1405,033-552-9441,http://midong.kwtbe.go.kr/,0,0,0,1,0,0,0,0,4,0,37.255862047148,128.983919458136
292,강원도교육청,태백교육지원청,삼성초등학교병설유치원,공립(병설),문창기,문창기,19810301,19810301,강원도 태백시 평화길 44,033-581-6860,https://samsung.gwe.es.kr/,0,0,0,1,0,0,0,0,2,0,37.0975151981223,129.023588898222
293,강원도교육청,평창교육지원청,거문초등학교병설유치원,공립(병설),정기수,정기수,19840630,19840630,강원도 평창군 거문길 24,033-335-7725,http://geomun.gwe.es.kr,0,0,0,1,0,0,0,0,13,0,37.6046609733335,128.531835547786
294,강원도교육청,평창교육지원청,호명초등학교병설유치원,공립(병설),김점예,김점예,20040301,20040301,강원도 평창군 약수동길 11,033-336-7504,http://www.homyung.es.kr,0,0,0,12,0,0,0,0,12,0,37.6422694373775,128.569244870289
295,강원도교육청,평창교육지원청,도성초등학교병설유치원,공립(병설),김준수,김준수,20020301,20020301,강원도 평창군 경강로 4177-6,033-334-6408,http://www.gwdoseong.es.kr/,0,0,0,1,0,0,0,0,7,0,37.6708294356685,128.599366041885
296,강원도교육청,평창교육지원청,메밀꽃유치원,공립(단설),원현숙,원현숙,20110901,20110901,강원도 평창군 평창대로 1908,033-334-0185,http://memil.gwe.kg.kr,2,2,2,0,1,19,27,22,0,4,37.5770987665281,128.421304503778
297,강원도교육청,평창교육지원청,속사초등학교병설유치원,공립(병설),김완수,김완수,19870126,19870316,강원도 평창군 운두령로 100,033-332-4328,http://soksa.es.kr,0,0,0,1,0,0,0,0,10,0,37.6464604144948,128.492604646684
298,강원도교육청,평창교육지원청,평창초등학교병설유치원,공립(병설),이기영,이기영,19810304,19810304,강원도 평창군 송학로 71,033-339-5189,http://www.pyeongchang.es.kr,0,0,1,1,0,0,0,11,13,0,37.3701109003717,128.392353493515
299,강원도교육청,평창교육지원청,면온초등학교병설유치원,공립(병설),안창용,안창용,20050301,20050301,강원도 평창군 태기로 493-11,033-332-0903,http://myeonon.gwe.es.kr/,0,0,0,1,0,0,0,0,9,0,37.5652665571935,128.349803957948
300,강원도교육청,평창교육지원청,주진초등학교병설유치원,공립(병설),강희경,강희경,19850902,19850902,강원도 평창군 서동로 2051-11,033-332-2273,http://www.jujin.es.kr,0,0,0,1,0,0,0,0,2,0,37.3935378364151,128.404739084909
301,강원도교육청,평창교육지원청,진부초등학교병설유치원,공립(병설),전형주,전형주,19800301,19800301,강원도 평창군 진부새싹길 52,033-339-7706, ,0,0,0,1,0,0,0,0,18,0,37.6394723627379,128.557073975141
302,강원도교육청,평창교육지원청,미탄초등학교병설유치원,공립(병설),이기섭,이기섭,19810310,19810310,강원도 평창군 미탄중앙로 49,033-334-0541, ,0,0,0,1,0,0,0,0,2,0,37.3420887549402,128.50062514299
303,강원도교육청,평창교육지원청,횡계초등학교병설유치원,공립(병설),김용달,김용달,19820301,19820901,강원도 평창군 꽃밭양지길 16-3,033-335-5010,http://www.hoenggye.es.kr,0,0,0,1,0,0,0,0,9,0,37.6765172085998,128.71183745023
304,강원도교육청,평창교육지원청,연화유치원,사립(사인),안영숙,김순미,19640308,19640308,강원도 평창군 노람들길 57,033-333-0345, ,0,0,1,1,0,0,0,10,8,0,37.3698669311151,128.400736796963
305,강원도교육청,평창교육지원청,안미초등학교병설유치원,공립(병설),김희정,김희정,19810310,19810310,강원도 평창군 하안미길 11-8,033-334-6504,http://anmi.gwe.es.kr,0,0,0,1,0,0,0,0,5,0,37.4606772701377,128.434414083944
306,강원도교육청,평창교육지원청,계촌초등학교병설유치원,공립(병설),송인호,송인호,19810301,19810301,강원도 평창군 계촌길 63,033-332-4608,http://gyechon.gwe.es.kr/,0,0,0,1,0,0,0,0,6,0,37.452438830608,128.304759715283
307,강원도교육청,평창교육지원청,방림초등학교병설유치원,공립(병설),이규애,이규애,19810301,19810301,강원도 평창군 방림1길 9,033-333-4690,http://bangrim.es.kr,0,0,0,1,0,0,0,0,3,0,37.4283217537002,128.391944439007
308,강원도교육청,홍천교육지원청,너브내유치원,공립(단설),박은희,박은희,20100901,20100901,강원도 홍천군 희망로4길 14,033-433-2963,http://nvn.gwe.kg.kr,1,2,2,0,1,14,33,31,0,3,37.6922044032258,127.885203504037
309,강원도교육청,홍천교육지원청,명덕초등학교병설유치원,공립(병설),최대일,최대일,19810308,19810308,강원도 홍천군 양덕원로 117,033-432-4022,http://hcmd.gwe.es.kr,0,0,0,1,0,0,0,0,12,0,37.619608831292,127.76742944406
310,강원도교육청,홍천교육지원청,창촌초등학교병설유치원,공립(병설),최순희,최순희,19850307,19850307,강원도 홍천군 구룡령로 5198,033-432-3592,http://changchon.gwe.es.kr,0,0,0,1,0,0,0,0,12,0,37.768529781488,128.38864809118
311,강원도교육청,홍천교육지원청,화촌초등학교병설유치원,공립(병설),유대균,유대균,19810216,19810216,강원도 홍천군 성산로147번길 8,033-432-2023,http://www.hwachon.es.kr,0,0,0,1,0,0,0,0,5,0,37.772487259403,127.966620849875
312,강원도교육청,홍천교육지원청,삼생초등학교병설유치원,공립(병설),노현수,노현수,19850315,19850315,강원도 홍천군 구룡령로 2933,033-436-4181, ,0,0,0,1,0,0,0,0,11,0,37.7004582749527,128.226476656764
313,강원도교육청,홍천교육지원청,우성유치원,사립(사인),민홍순,민홍순,20080301,20080301,강원도 홍천군 무궁화로4길 7,033-434-6800, ,1,2,2,0,0,15,32,38,0,0,37.683593343272,127.872248923008
314,강원도교육청,홍천교육지원청,협신초등학교병설유치원,공립(병설),류호림,류호림,19850305,19850305,강원도 홍천군 시동안로 89,033-432-5090,http://www.hyeopsin.es.kr/,0,0,0,1,0,0,0,0,2,0,37.5956528971656,127.81947802368
315,강원도교육청,홍천교육지원청,홍천유치원,사립(법인),권오현,최은희,19270402,19270402,강원도 홍천군 꽃뫼로 119,033-432-0219,http://hckids.co.kr/,1,1,1,0,0,15,12,18,0,0,37.6919286810696,127.887137839147
316,강원도교육청,홍천교육지원청,강룡사유치원,사립(사인),오병진,황영신,19991203,20000301,강원도 홍천군 석화로 45,033-433-3121, ,2,1,1,0,0,29,20,21,0,0,37.6949442461691,127.883802708117
317,강원도교육청,홍천교육지원청,대곡초등학교병설유치원,공립(병설),이영희,이영희,20020315,20020315,강원도 홍천군 한서로 1843,033-435-8220,http://daegok.gwe.es.kr/,0,0,0,1,0,0,0,0,10,0,37.6285638870106,127.648690725357
318,강원도교육청,홍천교육지원청,내촌초등학교병설유치원,공립(병설),한만식,한만식,19810216,19810216,강원도 홍천군 내촌길 21,033-433-7335,http://www.kwhnaechon.es.kr,0,0,0,1,0,0,0,0,8,0,37.8154473479258,128.085196012824
319,강원도교육청,홍천교육지원청,반곡초등학교병설유치원,공립(병설),정은순,정은순,19850810,19850901,강원도 홍천군 팔봉산로 639,033-434-0003, ,0,0,0,1,0,0,0,0,8,0,37.6902922192927,127.664767161439
320,강원도교육청,홍천교육지원청,한서초등학교병설유치원,공립(병설),조희천,조희천,19850901,19850901,강원도 홍천군 밤벌길2번길 12,033-434-1005, ,0,0,0,1,0,0,0,0,9,0,37.6925275027387,127.601982412973
321,강원도교육청,홍천교육지원청,율전초등학교병설유치원,공립(병설),김성회,김성회,20180301,20180302,강원도 홍천군 방내로 12,033-435-0902,http://yuljeoncho.gwe.es.kr,0,0,0,1,0,0,0,0,4,0,37.7498002383963,128.307737749263
322,강원도교육청,홍천교육지원청,구송초등학교병설유치원,공립(병설),권석용,권석용,19840615,19840615,강원도 홍천군 홍천로 1105,033-435-4037,http://www.gusong.es.kr,0,0,0,1,0,0,0,0,6,0,37.7384318299267,127.938405574388
323,강원도교육청,홍천교육지원청,서석초등학교병설유치원,공립(병설),조준형,조준형,19810316,19810316,강원도 홍천군 풍암길 58,033-433-4934,http://seoseok.gwhce.go.kr,0,0,0,1,0,0,0,0,18,0,37.7123960154004,128.188230295047
324,강원도교육청,홍천교육지원청,주봉초등학교병설유치원,공립(병설),김기순,김기순,19850302,19850302,강원도 홍천군 두루봉1길 16,033-434-3298, ,0,0,0,1,0,0,0,0,11,0,37.7089628772765,127.913963211348
325,강원도교육청,홍천교육지원청,마야유치원,사립(사인),유경춘,강정희,19880301,19880301,강원도 홍천군 석화로2길 7,033-433-1712, ,1,1,1,0,0,11,21,7,0,0,37.6950745852013,127.884659494318
326,강원도교육청,홍천교육지원청,속초초등학교병설유치원,공립(병설),최종석,최종석,19820303,19820303,강원도 홍천군 속초길 14,033-436-6047,http://www.hcsokcho.es.kr,0,0,0,1,0,0,0,0,12,0,37.6794778376063,127.939621243226
327,강원도교육청,홍천교육지원청,서석초등학교청량분교장병설유치원,공립(병설),조준형,조준형,19870316,19870316,강원도 홍천군 청량로 25,033-433-4183,http://cheongryang.gwhce.go.kr/,0,0,0,1,0,0,0,0,7,0,37.6885778785236,128.191934023753
328,강원도교육청,홍천교육지원청,삼포초등학교병설유치원,공립(병설),금명희,금명희,19850301,19850301,강원도 홍천군 구룡령로 339,033-432-7613,http://sampo.gwe.es.kr,0,0,1,1,0,0,0,4,4,0,37.7565898160462,127.975730584933
329,강원도교육청,홍천교육지원청,두촌초등학교병설유치원,공립(병설),이혜경,이혜경,19810216,19810216,강원도 홍천군 자은로 329,033-435-3005, ,0,0,0,1,0,0,0,0,9,0,37.8684466454346,128.016971516163
330,강원도교육청,홍천교육지원청,매산초등학교병설유치원,공립(병설),윤은옥,윤은옥,19840615,19840615,강원도 홍천군 시동안로 351,033-432-5059, ,0,0,0,1,0,0,0,0,4,0,37.5911486566942,127.846720896605
331,강원도교육청,홍천교육지원청,화계초등학교병설유치원,공립(병설),김동성,김동성,19810216,19810216,강원도 홍천군 능평길 10,033-434-5095,http://hwagye.gwedu.kr/,0,0,0,1,0,0,0,0,9,0,37.7114981966311,127.848843361147
332,강원도교육청,홍천교육지원청,홍천남산유치원,공립(단설),김명희,김명희,20200901,20200901,강원도 홍천군 긴밭들1길 19,334330185,http://h-namsan.gwe.kg.kr,1,2,2,0,0,16,21,19,0,0,37.6578352531425,127.888498612044
333,강원도교육청,화천교육지원청,상승초등학교병설유치원,공립(병설),유광종,유광종,19850901,19850901,강원도 화천군 평촌길 126-30,033-441-5686,https://sangseung.gwe.es.k,0,0,0,1,0,0,0,0,8,0,38.1568244787683,127.64967540855
334,강원도교육청,화천교육지원청,봉오초등학교병설유치원,공립(병설),박민영,박민영,19840615,19840615,강원도 화천군 봉오새싹길 31,033-441-2173,http://www.bongo.es.kr/,0,0,0,1,0,0,0,0,3,0,38.1883867060743,127.599965901684
335,강원도교육청,화천교육지원청,광덕초등학교병설유치원,공립(병설),박형필,박형필,19870316,19870316,강원도 화천군 포화로 817,033-441-4314,https://deok.gwe.es.kr/,0,0,0,1,0,0,0,0,8,0,38.067558736992,127.495083721105
336,강원도교육청,화천교육지원청,산양초등학교병설유치원,공립(병설),소흥순,소흥순,19810310,19810310,강원도 화천군 영서로 7778,033-442-0033,http://www.isanyang.es.kr,0,0,0,1,0,0,0,0,6,0,38.2125797872966,127.663140229582
337,강원도교육청,화천교육지원청,원천초등학교병설유치원,공립(병설),박봉철,박봉철,19850302,19850302,강원도 화천군 원천새싹길 16,033-441-7413,http://www.woncheon.es.kr/,0,0,0,1,0,0,0,0,12,0,38.0597051086357,127.666576434525
338,강원도교육청,화천교육지원청,화천유치원,공립(단설),허은주,허은주,20070301,20070301,강원도 화천군 화천새싹길 57,033-442-3385,http://hcy.kr.kr,1,3,3,0,1,15,44,60,0,4,38.1047433406792,127.708847565132
339,강원도교육청,화천교육지원청,다목초등학교병설유치원,공립(병설),문영숙,문영숙,19840612,19840612,강원도 화천군 다파로 9-4,033-441-7082, ,0,0,0,1,0,0,0,0,10,0,38.1759168220731,127.53459147553
340,강원도교육청,화천교육지원청,사내초등학교병설유치원,공립(병설),유영화,유영화,19810301,19810301,강원도 화천군 사내로3길 13,033-441-1180,http://www.사내초등학교병설유치원.com/,1,1,1,0,0,8,22,23,0,0,38.0695225447786,127.521214014488
341,강원도교육청,화천교육지원청,실내초등학교병설유치원,공립(병설),이경희,이경희,19990310,19990310,강원도 화천군 실내길 26,033-441-2998, ,0,0,0,1,0,0,0,0,11,0,38.1201097385037,127.531773904072
342,강원도교육청,화천교육지원청,용암초등학교병설유치원,공립(병설),최향순,최향순,19870809,19870809,강원도 화천군 용화산로 1325,033-441-8994, ,0,0,0,1,0,0,0,0,4,0,38.0894969667189,127.699833840636
343,강원도교육청,화천교육지원청,풍산초등학교병설유치원,공립(병설),엄경자,엄경자,19850310,19850310,강원도 화천군 평화로 1284,033-441-3268,http://pung-san.gwe.es.kr,0,0,0,8,0,0,0,0,8,0,38.1477509613314,127.741438864886
344,강원도교육청,화천교육지원청,오음초등학교병설유치원,공립(병설),전제용,전제용,19810220,19810316,강원도 화천군 동림길 47,033-442-1054,http://www.oeum.es.kr,0,0,0,1,0,0,0,0,3,0,38.0546113698221,127.821837643468
345,강원도교육청,화천교육지원청,유촌초등학교병설유치원,공립(병설),이한미,이한미,19810202,19810202,강원도 화천군 파로호로 935-9,033-442-7388,http://www.yuc.es.kr,0,0,0,1,0,0,0,0,10,0,38.0557504167407,127.791320132386
346,강원도교육청,횡성교육지원청,춘당초등학교병설유치원,공립(병설),이영재,이영재,19840907,19840907,강원도 횡성군 청정로 1461,033-342-5106,https://chundang.gwe.es.kr/main.do,0,0,0,1,0,0,0,0,3,0,37.6303747374366,128.144780164497
347,강원도교육청,횡성교육지원청,횡성초등학교병설유치원,공립(병설),이기웅,이기웅,19810301,19810301,강원도 횡성군 교항북로 35,033-340-5480, ,0,0,1,1,0,0,0,10,16,0,37.4874521605753,127.979676283137
348,강원도교육청,횡성교육지원청,성북초등학교병설유치원,공립(병설),정훈교,정훈교 ,20200301,20200301,강원도 횡성군 성북로 10,033-808-7557,http://hsseongbuk.gwe.es.kr/main.do,0,0,1,0,0,0,0,10,0,0,37.4902346825199,127.991871324503
349,강원도교육청,횡성교육지원청,성남초등학교병설유치원,공립(병설),김영언,김영언,19990301,19990301,강원도 횡성군 횡성로 109,033-345-2311, ,0,0,0,1,0,0,0,0,14,0,37.4652635458092,127.972908058745
350,강원도교육청,횡성교육지원청,둔내초등학교병설유치원,공립(병설),조창남,조창남,19810301,19810301,강원도 횡성군 둔내로47번길 6,033-342-6776,http://dunnae.gwe.es.kr/main.do,0,0,1,1,0,0,0,20,16,0,37.5134267780179,128.217922864895
351,강원도교육청,횡성교육지원청,수백초등학교병설유치원,공립(병설),이승열,이승열,19810217,19810217,강원도 횡성군 공근남로 446,033-343-6127,http://www.suback.es.kr,0,0,0,1,0,0,0,0,11,0,37.5343829180536,128.007300154092
352,강원도교육청,횡성교육지원청,창림초등학교병설유치원,공립(병설),송세영,송세영,19870303,19870303,강원도 횡성군 한우로 789,033-343-5601,http://www.changrim.es.kr,0,0,0,1,0,0,0,0,11,0,37.4956933258718,128.036006929672
353,강원도교육청,횡성교육지원청,서원초등학교병설유치원,공립(병설),김산옥,김산옥,19810217,19810305,강원도 횡성군 서원로 173,033-342-8098,http://www.hseowon.es.kr,0,0,0,1,0,0,0,0,11,0,37.4875501116997,127.851070445625
354,강원도교육청,횡성교육지원청,성모유치원,사립(법인),조규만,이자경,19930113,19930113,강원도 횡성군 태기로19번길 25,033-343-3660, ,1,1,1,0,0,13,14,17,0,0,37.4924629450804,127.987464679833
355,강원도교육청,횡성교육지원청,공근초등학교병설유치원,공립(병설),송종출,송종출,19810217,19810217,강원도 횡성군 영서로 207,033-342-3020,http://www.gongguen.es.kr,0,0,0,1,0,0,0,0,8,0,37.5337168650211,127.960962499464
356,강원도교육청,횡성교육지원청,갑천초등학교병설유치원,공립(병설),한영예,한영예,19810301,19810301,강원도 횡성군 청정로 262,033-343-9015,http://www.gapcheon.es.kr,0,0,0,1,0,0,0,0,3,0,37.5575513626486,128.107661047713
357,강원도교육청,횡성교육지원청,화성유치원,사립(법인),신윤희,신윤희,19190407,19190407,강원도 횡성군 북천서로 20,033-343-1280, ,1,1,1,1,0,23,25,28,6,0,37.4920826835778,127.990140188315
358,강원도교육청,횡성교육지원청,정금초등학교병설유치원,공립(병설),정정일,정정일,19860305,19860305,강원도 횡성군 경강로 3276,033-342-2713,http://www.jeonggum.es.kr/ ,0,0,0,1,0,0,0,0,8,0,37.5055216179548,128.104889816264
359,강원도교육청,횡성교육지원청,청일초등학교병설유치원,공립(병설),김장수,김장수,19810301,19810301,강원도 횡성군 청정로 795,033-342-5628,http://www.chongil.es.kr/,0,0,0,1,0,0,0,0,5,0,37.5813178824284,128.146833989956
360,경기도교육청,가평교육지원청,연하초등학교병설유치원,공립(병설),박효진,박효진,19810305,19810310,경기도 가평군 비룡로 2199-19,031-585-3470, ,0,0,0,1,0,0,0,0,8,0,37.8032602854543,127.342528699186
361,경기도교육청,가평교육지원청,방일초등학교병설유치원,공립(병설),전계옥,전계옥,19820301,19820301,경기도 가평군 양방가루재길 76,031-585-4661, ,0,0,0,1,0,0,0,0,6,0,37.6292978563621,127.499447880552
362,경기도교육청,가평교육지원청,상색초등학교병설유치원,공립(병설),유미현,유미현,19810305,19810305,경기도 가평군 태봉두밀로 34-31,031-582-2251, ,0,0,0,1,0,0,0,0,8,0,37.805403527648,127.484985573909
363,경기도교육청,가평교육지원청,미원초등학교병설유치원,공립(병설),김명희,김명희,19810301,19810301,경기도 가평군 신천중앙로120번길 11,031-584-8718,https://miwon.es.kr,0,0,1,1,0,0,0,4,7,0,37.6795250630736,127.490735757873
364,경기도교육청,가평교육지원청,대성초등학교병설유치원,공립(병설),서분돌,서분돌,19810301,19810301,경기도 가평군 경춘로 75,031-584-0793,http://www.kgds.es.kr,0,0,0,1,0,0,0,0,13,0,37.6831257492915,127.377692768812
365,경기도교육청,가평교육지원청,청평초등학교병설유치원,공립(병설),권창숙,권창숙,19820305,19820305,경기도 가평군 잠곡로 27,031-585-0245,http://www.chungpyong.es.kr,0,0,1,1,0,0,0,8,11,0,37.7378328932934,127.421859129934
366,경기도교육청,가평교육지원청,율길초등학교병설유치원,공립(병설),정명희,정명희,19840901,19840901,경기도 가평군 청군로 2090,031-584-6005,http://www.yulgil.es.kr/,0,0,0,1,0,0,0,0,2,0,37.8379018113052,127.28856876773
367,경기도교육청,가평교육지원청,조종초등학교병설유치원,공립(병설),한경석,한경석,19810301,19810301,경기도 가평군 조종새싹로 13-9,031-585-0584, ,0,0,1,1,1,0,0,13,10,3,37.8215151854986,127.348931950826
368,경기도교육청,가평교육지원청,가평유치원,공립(단설),신경란,신경란,20100302,20100302,경기도 가평군 향교로 23-3,031-582-4986,http://gapyeong.kg.kr,2,2,2,0,2,12,21,25,0,5,37.8295021538464,127.507494855256
369,경기도교육청,가평교육지원청,청심유치원,사립(사인),조성태,최정은,20060302,20060302,경기도 가평군 미사리로286번길 16,031-589-9900,http://www.cskids.co.kr,2,2,1,0,0,29,27,21,0,0,37.6846449568347,127.523089072238
370,경기도교육청,가평교육지원청,상천초등학교병설유치원,공립(병설),류홍진,류홍진,19810301,19810301,경기도 가평군 상천역로19번길 38,031-585-3419,http://www.sang1000.es.kr,0,0,0,1,0,0,0,0,8,0,37.7701144080109,127.456085319096
371,경기도교육청,가평교육지원청,목동초등학교병설유치원,공립(병설),황기권,황기권,19810307,19810307,경기도 가평군 석장모루길 13,031-581-0616, ,0,0,0,1,0,0,0,0,5,0,37.8793460474272,127.548120677523
372,경기도교육청,가평교육지원청,상면초등학교병설유치원,공립(병설),이성용,이성용,19810309,19810309,경기도 가평군 청군로 700-22,031-584-6879, ,0,0,0,1,0,0,0,0,16,0,37.7760887822331,127.371140194704
373,경기도교육청,가평교육지원청,가평마장초등학교병설유치원,공립(병설),박영호,박영호,20010901,20010901,경기도 가평군 각담말길 15,031-582-8796,https://kpmajang.es.kr,0,0,0,1,0,0,0,0,6,0,37.8599725145778,127.514292342357
374,경기도교육청,고양교육지원청,자연유치원,사립(사인),김상오,최은주,19950417,19950417,경기도 고양시 일산서구 현중로 61,031-913-0141, ,2,1,1,0,0,15,19,19,0,0,37.6961814765787,126.766526487422
375,경기도교육청,고양교육지원청,미래유치원,사립(사인),유영표,인지선,19980123,19980123,경기도 고양시 덕양구 마상로 142,031-964-2550, ,0,0,0,2,0,0,0,0,44,0,37.6590715194775,126.838361448321
376,경기도교육청,고양교육지원청,코끼리유치원,사립(사인),서지연,김시연,19970509,19970509,경기도 고양시 덕양구 행신로325번길 20,031-978-0997-8,http://kokiri97.com,2,2,2,0,0,40,48,55,0,0,37.6241806720081,126.845360880503
377,경기도교육청,고양교육지원청,백송초등학교병설유치원,공립(병설),이좌형,이좌형,20110301,20110301,경기도 고양시 일산서구 하이파크3로 110,031-919-1784, ,0,1,1,0,4,0,14,18,0,4,37.7018088733012,126.753556606125
378,경기도교육청,고양교육지원청,별빛유치원,사립(사인),손양섭,손양섭,19960318,19960318,경기도 고양시 덕양구 화신로 298,031-971-6630, ,3,2,2,0,0,55,48,50,0,0,37.6315059786831,126.828803092429
379,경기도교육청,고양교육지원청,오늘유치원,사립(사인),권미경,김혜정,20170413,20170413,경기도 고양시 일산서구 성저로 62,031-915-7942,https://today.kidsnote.ac,5,5,3,0,0,92,95,66,0,0,37.6846653239096,126.754036998791
380,경기도교육청,고양교육지원청,동산유치원,사립(사인),박남훈,박남훈,19941020,19941020,경기도 고양시 일산서구 주엽로 122,031-913-2201, ,2,1,1,0,0,36,24,16,0,0,37.6696355435368,126.758023013574
381,경기도교육청,고양교육지원청,신능초등학교병설유치원,공립(병설),정영란,정영란,19980305,19980305,경기도 고양시 덕양구 충장로123번길 37,031-972-5227,http://www.shinneung.es.kr,0,0,0,1,0,0,0,0,13,0,37.624144061206,126.83126710675
382,경기도교육청,고양교육지원청,드림아이유치원,사립(사인),이정아,정진희,20151203,20160301,경기도 고양시 덕양구 권율대로 696-9,031-962-9669,http://dreami.uriweb.kr/,4,4,4,0,0,58,89,86,0,0,37.6508490186589,126.876314020118
383,경기도교육청,고양교육지원청,연세유치원,사립(사인),이정덕,금지윤,이정덕,19950807,19950807,경기도 고양시 일산서구 탄현로 64,031-915-8621, ,3,3,2,0,0,37,48,43,0,0,0
384,경기도교육청,고양교육지원청,은정유치원,사립(사인),김순희,김순희,19930301,19930301,경기도 고양시 일산동구 백석로 103,031-902-0011,http://www.eunjung.kr/,1,1,1,0,0,10,16,24,0,0,37.6490702334496,126.788443793633
385,경기도교육청,고양교육지원청,한산초등학교병설유치원,공립(병설),유해형,유해형,20110301,20110301,경기도 고양시 일산서구 하이파크1로 56,031-916-8455, ,1,1,1,0,0,13,11,20,0,0,37.6959462520781,126.75326159217
386,경기도교육청,고양교육지원청,그루터기유치원,사립(사인),김난영,김난영,20041224,20041224,경기도 고양시 일산동구 무궁화로93번길 26,031-922-2214,http://gurutuhgi.kidis.co.kr/,4,2,1,0,0,25,22,20,0,0,37.6673381827949,126.772673455144
387,경기도교육청,고양교육지원청,짐랜드유치원,사립(사인),백승일,주혜원,20101216,20101216,경기도 고양시 덕양구 충장로152번길 59,031-979-7333,http://cafe.daum.net/gympreschool,2,2,1,0,0,18,41,22,0,0,37.6244447688973,126.838579412747
388,경기도교육청,고양교육지원청,풍동초등학교병설유치원,공립(병설),김창성,김창성,20070301,20070301,경기도 고양시 일산동구 숲속마을로 14-43,031-932-8737,http://www.poongdong.es.kr/,0,0,0,1,0,0,0,0,9,0,37.6695159928335,126.802523322758
389,경기도교육청,고양교육지원청,흰돌유치원,사립(사인),장춘자,이우영,19941107,19950301,경기도 고양시 일산동구 일산로 11,031-902-1940, ,1,2,1,0,0,13,24,28,0,0,37.6408290832821,126.784486506805
390,경기도교육청,고양교육지원청,내유초등학교병설유치원,공립(병설),이오숙,이오숙,19810310,19810310,경기도 고양시 덕양구 통일로 1132,031-962-4632, ,0,0,0,1,0,0,0,0,11,0,37.7155625824928,126.851955375867
391,경기도교육청,고양교육지원청,배화유치원,사립(사인),이호정,김명자,19870306,19870306,경기도 고양시 덕양구 토당로104번길 31,031-974-0880,http://www.baewha.co.kr,2,2,2,0,0,33,35,40,0,0,37.624460609395,126.819183504567
392,경기도교육청,고양교육지원청,모당초등학교병설유치원,공립(병설),이선희,이선희,20080301,20080301,경기도 고양시 일산동구 하늘마을로 144,031-975-9239, ,0,1,1,0,0,0,18,25,0,0,37.6795199583397,126.780772119974
393,경기도교육청,고양교육지원청,벽제초등학교병설유치원,공립(병설),서정인,서정인,19810305,19810305,경기도 고양시 일산동구 공릉천로 13,031-963-3147,http://www.byeokje.es.kr/,0,0,1,1,0,0,0,14,11,0,37.6956293880366,126.843272801349
394,경기도교육청,고양교육지원청,아이사랑유치원,사립(사인),윤승훈,윤승훈,19970322,19970322,경기도 고양시 덕양구 화신로 319,031-979-2031, ,1,2,1,1,0,13,40,18,20,0,37.6326512487296,126.826294938956
395,경기도교육청,고양교육지원청,현대유치원,사립(사인),박영미,김미화,19910309,19910311,경기도 고양시 덕양구 통일로1154번길 16-9,031-962-8928,http://cafe.daum.net/hyundaikids,0,0,0,1,0,0,0,0,24,0,37.716877066825,126.850998458079
396,경기도교육청,고양교육지원청,이튼유치원,사립(사인),권영운,권영운,20020731,20020731,경기도 고양시 일산동구 백석로72번길 31-18,031-908-8771,http://www.etonschool.kr/,2,3,3,0,0,25,57,56,0,0,37.6465277608873,126.787996740413
397,경기도교육청,고양교육지원청,향동숲내초등학교병설유치원,공립(병설),김성주,김성주,20190114,20190305,경기도 고양시 덕양구 향기로 53,02-3159-9082, ,1,1,1,0,1,15,18,25,0,1,37.5952085878698,126.890844574336
398,경기도교육청,고양교육지원청,안곡초등학교병설유치원,공립(병설),김종각,김종각,20040304,20040304,경기도 고양시 일산동구 중산로 142,031-976-1627,http://angok.es.kr/,0,1,1,0,0,0,6,11,0,0,37.6847806955713,126.781854619666
399,경기도교육청,고양교육지원청,다솔유치원,공립(단설),서동미,서동미,20140301,20140301,경기도 고양시 덕양구 도래울1로 37,319685296,http://dasol.kg.kr/,4,4,5,0,1,61,86,122,0,4,37.6296358703036,126.867340025898
400,경기도교육청,고양교육지원청,저동초등학교병설유치원,공립(병설),최상포,최상포,20130311,20130311,경기도 고양시 일산동구 대산로11번길 37,031-916-0389,http://www. jeodong.es.kr,1,1,1,0,0,7,8,18,0,0,37.6680112775328,126.773878400679
401,경기도교육청,고양교육지원청,예은유치원,사립(사인),주광식,권영희,19970302,19970302,경기도 고양시 일산서구 강성로214번길 41-4,031-917-6742, ,1,0,0,1,0,10,0,0,9,0,37.6767162896083,126.754084893714
402,경기도교육청,고양교육지원청,성모유치원,사립(법인),이기헌,백남실,19650302,20000425,경기도 고양시 일산서구 원일로 57,031-975-2279, ,2,1,2,0,0,40,19,33,0,0,37.6877348620023,126.769101612439
403,경기도교육청,고양교육지원청,도담유치원,사립(사인),김향숙,김향숙,20000901,20000901,경기도 고양시 일산서구 탄현로 115-22,031-919-7979, ,4,4,3,0,0,61,58,52,0,0,37.7014170569447,126.766219096948
404,경기도교육청,고양교육지원청,씨알유치원,사립(사인),한상경,한상경,20160706,20160901,경기도 고양시 덕양구 고양대로1670번길 77-19,967-7725,http://www.CR-kinder.or.kr,2,2,2,0,0,35,43,48,0,0,37.6457725052804,126.867905417492
405,경기도교육청,고양교육지원청,풍동숲속유치원,공립(단설),김경희,김경희,20150301,20150301,경기도 고양시 일산동구 숲속마을2로 119,031-932-9014,http://www.pdwoods.kg.kr,2,2,2,0,1,30,39,47,0,4,37.673155447517,126.800194388831
406,경기도교육청,고양교육지원청,유경유치원,사립(사인),김지은,조은영,19960903,19960908,경기도 고양시 덕양구 화중로 222,031-967-8393, ,2,2,1,0,0,39,43,16,0,0,37.6478335337304,126.835528951641
407,경기도교육청,고양교육지원청,꿈나무유치원,사립(사인),조옥자,조옥자,19950114,19950114,경기도 고양시 일산서구 후곡로 60,031-915-3298,http://www.koomnamoo.com,1,1,1,0,0,18,14,19,0,0,37.682318904971,126.766487979106
408,경기도교육청,고양교육지원청,원중초등학교병설유치원,공립(병설),오성렬,오성렬,19830310,19830310,경기도 고양시 일산동구 위시티3로 67,031-966-3003, ,0,1,1,0,0,0,8,12,0,0,37.6751315973579,126.814731028265
409,경기도교육청,고양교육지원청,문촌사랑유치원,사립(사인),양규진,최은미,19950306,19950306,경기도 고양시 일산서구 킨텍스로 284,031-913-4637,http://mclovekids.com,2,1,1,0,0,32,25,24,0,0,37.6696688795051,126.751693760148
410,경기도교육청,고양교육지원청,고양국제유치원,사립(사인),권인양,이은숙,20180419,20180419,경기도 고양시 덕양구 동산1로2길 25,02-381-1382,http://www.gyint.com/,1,0,0,0,0,16,0,0,0,0,37.6437422015068,126.884354860213
411,경기도교육청,고양교육지원청,푸른하늘유치원,사립(사인),문백호,이우경,19951122,19951122,경기도 고양시 일산동구 고봉로 422,031-977-0155,http://cafe.daum.net/hanwoorikg,2,2,1,0,0,19,30,19,0,0,37.696110716032,126.780003954084
412,경기도교육청,고양교육지원청,한울유치원,사립(사인),한이경,한이경,20070329,20070329,경기도 고양시 덕양구 통일로770번길 58,031-964-6705, ,1,1,1,0,0,17,22,26,0,0,37.6903077588314,126.865358111425
413,경기도교육청,고양교육지원청,아이비유치원,사립(사인),이정수,이정수,20101026,20101026,경기도 고양시 덕양구 소원로266번길 2-1,031-971-6007, ,1,2,1,0,0,10,24,15,0,0,37.6143574344167,126.851569546735
414,경기도교육청,고양교육지원청,은지유치원,사립(사인),김지은,송수정,19930402,19930402,경기도 고양시 일산동구 강송로 156,031-902-2036, ,0,1,2,0,0,0,15,18,0,0,37.6527457050373,126.785603523509
415,경기도교육청,고양교육지원청,글로벌동심유치원,사립(사인), 한연현,한연현,20190712,20190723,경기도 고양시 덕양구 행신로143번길 25,031-970-7979,http://www.dongsimchild.or.kr,5,2,2,0,0,68,45,21,0,0,37.6203453720543,126.830924210698
416,경기도교육청,고양교육지원청,아람초등학교병설유치원,공립(병설),이우영,이우영,20090301,20090301,경기도 고양시 덕양구 서정마을로 36,031-979-5420, ,0,1,1,0,0,0,10,12,0,0,37.6194566433451,126.850412322471
417,경기도교육청,고양교육지원청,모심유치원,사립(사인),남인숙,남인숙,19950411,19950411,경기도 고양시 일산동구 탄중로 430,031-976-6436, ,1,1,1,0,0,4,6,4,0,0,37.6875374689991,126.778070525551
418,경기도교육청,고양교육지원청,한류유치원,공립(단설),엄영희,엄영희,20190901,20190901,경기도 고양시 일산동구 한류월드로 262-1,031-924-8671,http://hanryu.kg.kr,5,5,4,0,1,55,84,73,0,4,37.661616578812,126.757723662773
419,경기도교육청,고양교육지원청,율동초등학교병설유치원,공립(병설),공대선,공대선,19970301,19970301,경기도 고양시 일산동구 산두로 223,031-913-0390, ,0,0,0,1,1,0,0,0,14,2,37.6754439422902,126.778844493045
420,경기도교육청,고양교육지원청,늘푸름유치원,사립(사인),유명혜,유명혜,19950605,19950605,경기도 고양시 일산서구 후곡로 36,031-911-9810,https://blog.naver.com/npr1066,1,2,2,0,0,12,22,45,0,0,37.6806319378846,126.76509221347
421,경기도교육청,고양교육지원청,가좌초등학교병설유치원,공립(병설),최미경,최미경,20060301,20060301,경기도 고양시 일산서구 가좌2로 31,031-922-6047, ,1,1,1,0,0,16,16,19,0,0,37.6884818031535,126.721364145132
422,경기도교육청,고양교육지원청,한나래유치원,사립(법인),학교법인 광성학원,송희숙,20140304,20140304,경기도 고양시 일산서구 하이파크로 161,031-929-9561, ,3,3,3,0,0,45,62,71,0,0,37.7038851033097,126.757480914642
423,경기도교육청,고양교육지원청,송포초등학교병설유치원,공립(병설),오정희,오정희,19810309,19810309,경기도 고양시 일산서구 송산로 379,031-923-0056, ,0,0,1,0,0,0,0,19,0,0,37.6854012233186,126.720540471574
424,경기도교육청,고양교육지원청,고양오금유치원,공립(단설),유오숙,유오숙,20160307,20160307,경기도 고양시 덕양구 오금1로 10,02-381-7383,http://www.gyogeum.kg.kr,3,4,4,0,1,41,75,95,0,4,37.6626920220511,126.895255585354
425,경기도교육청,고양교육지원청,둥지유치원,사립(사인),양영실,양영실,19960601,19960601,경기도 고양시 덕양구 백양로 126,031-964-1671, ,1,2,1,0,0,11,26,22,0,0,37.6366841823065,126.835304958543
426,경기도교육청,고양교육지원청,엄지유치원,사립(사인),전인영,전인영,20130306,20130306,경기도 고양시 덕양구 용현로35번길 8-16,031-970-7416, ,2,2,1,0,0,40,43,25,0,0,37.616690456238,126.835534257749
427,경기도교육청,고양교육지원청,덕이초등학교병설유치원,공립(병설),전정옥,전정옥,20150301,20150301,경기도 고양시 일산서구 덕이로 104,031-916-2118,http://www.deoki-e.es.kr,0,1,1,0,0,0,8,20,0,0,37.6927648692268,126.74838051788
428,경기도교육청,고양교육지원청,바다유치원,사립(사인),이영수,이채원,20160129,20160401,경기도 고양시 덕양구 대양로285번길 45,031-964-8458,http://club.cyworld.com/9628458,2,2,1,0,0,27,36,23,0,0,37.7035966517401,126.895833308104
429,경기도교육청,고양교육지원청,풍산초등학교병설유치원,공립(병설),최치식,최치식,20020214,20020214,경기도 고양시 일산동구 숲속마을로 51,031-908-8477, ,1,1,1,0,2,14,16,24,0,6,37.6668703854122,126.796705679257
430,경기도교육청,고양교육지원청,무원유치원,사립(사인),유민희,이진숙,19950118,19950118,경기도 고양시 덕양구 무원로 63,031-970-2211, ,2,1,2,0,0,40,26,56,0,0,37.6184417618967,126.829980009808
431,경기도교육청,고양교육지원청,좋은나무유치원,사립(사인),백영숙,김강희,20021204,20021204,경기도 고양시 덕양구 원당로393번길 21-2,031-969-5123, ,1,1,1,0,0,22,20,21,0,0,37.6830122011268,126.848018924074
432,경기도교육청,고양교육지원청,안젤라유치원,사립(법인),채완수,신성숙,19970616,19970616,경기도 고양시 일산동구 강송로225번길 39,031-906-3004, ,1,2,2,0,0,16,47,39,0,0,37.6574425350477,126.779214197105
433,경기도교육청,고양교육지원청,큰솔숲유치원,사립(사인),김미옥,김미옥,20040223,20040223,경기도 고양시 일산동구 산황로 178-74,031-965-1870, ,2,1,2,0,0,23,39,28,0,0,37.651666524104,126.806840346802
434,경기도교육청,고양교육지원청,솔마루유치원,공립(단설),류향숙,류향숙,20200301,20200302,경기도 고양시 일산동구 위시티2로11번길 22-30,319685171,http://www.solmaru.kg.kr,3,3,3,0,1,37,54,48,0,4,37.6768274398054,126.813943512368
435,경기도교육청,고양교육지원청,행신초등학교병설유치원,공립(병설),박용기,박용기,19910311,19910311,경기도 고양시 덕양구 중앙로 527,031-978-8651,http://www.haengsin.es.kr,0,1,1,0,0,0,12,11,0,0,37.6219469217541,126.836454583409
436,경기도교육청,고양교육지원청,한솔유치원,사립(사인),한경순,한경순,19930730,19930730,경기도 고양시 일산동구 백석로 119,031-903-5335,http://www.hansol5335.co.kr,2,2,2,0,0,30,30,34,0,0,37.6505340522881,126.79147665829
437,경기도교육청,고양교육지원청,지축유치원,공립(단설),임기순,임기순,20200901,20200904,경기도 고양시 덕양구 오부자로 50,02-381-6803,http://www.jichuk.kg.kr,4,4,2,0,1,63,64,27,0,4,37.6529108583781,126.915951554072
438,경기도교육청,고양교육지원청,초롱유치원,사립(사인),이진욱,김은숙,20030902,20030902,경기도 고양시 일산서구 송포로 292-24,031-923-6663, ,2,3,3,0,0,40,64,56,0,0,37.6894235943038,126.7269893018
439,경기도교육청,고양교육지원청,홍익유치원,사립(사인),조용배,조용배,19950302,19950302,경기도 고양시 일산서구 일현로 128,031-914-0257, ,2,3,2,0,0,25,60,25,0,0,37.697673527371,126.76677319185
440,경기도교육청,고양교육지원청,고양용현초등학교병설유치원,공립(병설),김범석,김범석,19970301,19970301,경기도 고양시 덕양구 화신로 21,031-970-0157, ,1,1,1,0,0,9,11,11,0,0,37.6151777248977,126.838225903568
441,경기도교육청,고양교육지원청,백마초등학교병설유치원,공립(병설),오현철,오현철,19860310,19860310,경기도 고양시 일산동구 일산로 230,031-902-9616,http://www.baekma.es.kr,0,1,1,0,1,0,10,16,0,4,37.6578971697095,126.79088307804
442,경기도교육청,고양교육지원청,장촌초등학교병설유치원,공립(병설),박질봉,박질봉,20130913,20130913,경기도 고양시 일산서구 호수로856번길 43,031-914-0462,http://www.jangchon.es.kr,1,1,1,0,0,7,19,18,0,0,37.672827417689,126.748960541926
443,경기도교육청,고양교육지원청,화중초등학교병설유치원,공립(병설),채양석,채양석,20120301,20120301,경기도 고양시 덕양구 화중로152번길 43,031-967-8361, ,0,1,1,0,0,0,5,12,0,0,37.6408934917193,126.836018311402
444,경기도교육청,고양교육지원청,문촌유치원,사립(사인),이주희,이주희,19941227,19941227,경기도 고양시 일산서구 대산로 176,031-915-7800, ,1,2,2,0,0,20,47,49,0,0,37.6768831026933,126.758861559753
445,경기도교육청,고양교육지원청,소만유치원,공립(단설),김정숙,김정숙,20140301,20140301,경기도 고양시 덕양구 화신로 48,031-979-3964,http://www.soman.kg.kr,1,1,2,0,1,15,20,33,0,4,37.6175427809968,126.839585650475
446,경기도교육청,고양교육지원청,능곡초등학교병설유치원,공립(병설),윤숙영,윤숙영,19860302,19860302,경기도 고양시 덕양구 토당로67번길 66,031-974-9765,http://www.ng.es.kr,0,0,0,1,0,0,0,0,15,0,37.6244977664253,126.81594366906
447,경기도교육청,고양교육지원청,한미유치원,사립(사인),최승준,박소미,19841220,19841220,경기도 고양시 일산서구 고양대로 686-8,031-975-6567,http://hanmiu.cc,2,3,3,0,0,37,51,39,0,0,37.6835369096406,126.771814471642
448,경기도교육청,고양교육지원청,삼성숲유치원,사립(사인),배영희,박선영,20171115,20180302,경기도 고양시 덕양구 푸른마을로 110-8,031-969-6565,http://www.samsungsoopkid.co.kr,2,2,3,0,0,28,33,48,0,0,37.7152097614753,126.904128280986
449,경기도교육청,고양교육지원청,꿈나라유치원,사립(사인),염명순,염명자,20151203,20160301,경기도 고양시 덕양구 신원로1길 61,02-371-3394, ,4,5,3,0,0,80,114,48,0,0,37.6612712394062,126.888446789038
450,경기도교육청,고양교육지원청,성신초등학교병설유치원,공립(병설),이현미,이현미,19960517,19980310,경기도 고양시 덕양구 성신로 104,031-973-2258,http://www.seongsin-e.es.kr,0,1,1,0,0,0,20,25,0,0,37.6266341892468,126.839920004294
451,경기도교육청,고양교육지원청,지도초등학교병설유치원,공립(병설),김순옥,김순옥,19980301,19981201,경기도 고양시 덕양구 성신로 49,031-974-0554, ,0,0,1,0,0,0,0,14,0,0,37.6282733926695,126.833759073281
452,경기도교육청,고양교육지원청,준성자연유치원,사립(사인),이배흥,김인영,20051102,20051114,경기도 고양시 덕양구 통일로799번길 16,031-962-8222, ,0,2,2,0,0,0,30,40,0,0,37.6880871291876,126.861705003891
453,경기도교육청,고양교육지원청,솔거유치원,사립(사인),최연자,최연자,19960901,19960901,경기도 고양시 덕양구 화정로 27,031-969-0101, ,2,3,2,0,0,35,43,33,0,0,37.6354683837898,126.828592564343
454,경기도교육청,고양교육지원청,리빙스턴유치원,사립(사인),한흥직,이원주,20050322,20050322,경기도 고양시 덕양구 도내로 13-40,031-964-5309, ,1,1,1,0,0,11,15,13,0,0,37.6261672786864,126.848854863476
455,경기도교육청,고양교육지원청,선아유치원,사립(사인),이찬실,이찬실,19950114,19950114,경기도 고양시 일산서구 주엽로 98,031-913-8569,http://www.sunkids.me,1,2,1,0,0,20,44,30,0,0,37.6676420519572,126.756148101373
456,경기도교육청,고양교육지원청,성저유치원,사립(사인),이초은,이초은,19960301,19960301,경기도 고양시 일산서구 대산로 251,031-916-4580,http://www.sungjer.com/main/main.html,2,1,2,0,0,27,21,31,0,0,37.6798220475934,126.750951072218
457,경기도교육청,고양교육지원청,하늘숲유치원,사립(사인),이기영,이상아,20070301,20070301,경기도 고양시 일산동구 숲속마을1로 29 -12,031-932-5950,http://www.skysky.co.kr,3,3,3,0,0,60,64,59,0,0,37.6640737152875,126.798262409133
458,경기도교육청,고양교육지원청,주엽초등학교병설유치원,공립(병설),박봉선,박봉선,19970301,19970301,경기도 고양시 일산서구 강선로 29,031-912-0026, ,1,1,1,0,0,12,19,17,0,0,37.6673899312081,126.761510837079
459,경기도교육청,고양교육지원청,하늘초등학교병설유치원,공립(병설),장선경,장선경,20091029,20091029,경기도 고양시 일산동구 하늘마을1로 46,031-975-6363,http://haneul.es.kr,0,1,1,0,0,0,20,23,0,0,37.6773590161764,126.789858347464
460,경기도교육청,고양교육지원청,은선유치원,사립(사인),김지은,박지현,19941123,19950301,경기도 고양시 일산동구 노루목로 100,031-902-3292,http://www.eunsun.net,2,2,2,0,0,30,51,38,0,0,37.6488266128629,126.776856470775
461,경기도교육청,고양교육지원청,문촌초등학교병설유치원,공립(병설),정경심,정경심,19940601,20160303,경기도 고양시 일산서구 주엽로 168,031-114,http://www.e-munchon.es.kr/wah/main/html/view.htm?menuCode=10,0,1,1,0,0,0,8,16,0,0,37.6733864175739,126.760457083021
462,경기도교육청,고양교육지원청,창의유치원,사립(사인),우명혜 권화순,우명혜,20151228,20160301,경기도 고양시 일산동구 고양대로1080번길 38,031-965-8594, ,1,2,2,0,0,13,35,39,0,0,37.6677580615067,126.808626201643
463,경기도교육청,고양교육지원청,양일초등학교병설유치원,공립(병설),양명숙,양명숙,20100901,20100901,경기도 고양시 일산동구 위시티로 151,070-7744-1955,http://www.yangil.es.kr,0,0,1,1,0,0,0,17,6,0,37.6853441200697,126.813609451696
464,경기도교육청,고양교육지원청,호곡초등학교병설유치원,공립(병설),박애숙,박애숙,20000209,20000301,경기도 고양시 일산서구 탄현로 109,031-919-7082, ,1,1,1,0,1,14,20,24,0,4,37.7011136704743,126.7667960923
465,경기도교육청,고양교육지원청,탄현유치원,사립(사인),김기한,노미숙,19940218,19950301,경기도 고양시 일산서구 현중로 64,031-915-6332,http://www.tanhyun.co.kr,3,2,1,0,0,29,43,12,0,0,37.6963015476068,126.767972587326
466,경기도교육청,고양교육지원청,해달별유치원,사립(사인),선봉주,선봉주,20020610,20020610,경기도 고양시 덕양구 강매로 229,031-978-6669, ,1,1,1,0,0,6,13,12,0,0,37.6078478824153,126.843547097963
467,경기도교육청,고양교육지원청,덕은초등학교병설유치원,공립(병설),김혜숙,김혜숙,19810330,19810330,경기도 고양시 덕양구 중앙로176번길 18-4,02-3158-3321,http://www.deokun.es.kr/wah/main/index.htm,0,0,0,1,0,0,0,0,14,0,37.6032743872942,126.872717213534
468,경기도교육청,고양교육지원청,고양일산유치원,공립(단설),민성연,민성연,20090301,20090301,경기도 고양시 일산서구 일중로15번길 38,031-975-6541,http://www.goyangilsan.kg.kr,1,2,2,0,1,16,35,46,0,4,37.682988871248,126.771967381527
469,경기도교육청,고양교육지원청,성가정유치원,사립(법인),이기헌,양순례,20020913,20030511,경기도 고양시 덕양구 용현로5번길 36,031-979-4077, ,1,1,1,0,0,13,18,10,0,0,37.6140180347742,126.834951747794
470,경기도교육청,고양교육지원청,성바오로유치원,사립(법인),탁미영,탁미영,20030413,20030413,경기도 고양시 덕양구 중앙로468번길 69,031-938-0922, ,2,2,1,0,0,17,33,20,0,0,37.6219476591971,126.84446361855
471,경기도교육청,고양교육지원청,예사랑유치원,사립(사인),이효은,김지현,19980301,19980301,경기도 고양시 덕양구 화중로138번길 27,031-966-8323, ,1,1,2,0,0,14,20,29,0,0,37.6394255071716,126.833820562386
472,경기도교육청,고양교육지원청,바른유치원,사립(사인),전창근,오현주,19941227,19941227,경기도 고양시 일산서구 킨텍스로 410,031-914-4368, ,3,2,2,0,0,40,39,38,0,0,37.6807144733631,126.759374823324
473,경기도교육청,고양교육지원청,엔젤숲유치원,사립(사인),임현덕,정은우,20130501,20130501,경기도 고양시 덕양구 일영로 116-7,02-371-0098,http://www.angelsoop.co.kr/,2,3,2,0,0,40,71,54,0,0,37.6566733283739,126.921259393402
474,경기도교육청,고양교육지원청,일산은행초등학교병설유치원,공립(병설),최봉환,최봉환,20030301,20030301,경기도 고양시 일산동구 은행마을로 70,031-969-6737, ,0,0,0,1,0,0,0,0,20,0,37.6693291178889,126.806484350375
475,경기도교육청,고양교육지원청,신원초등학교병설유치원,공립(병설),한필희,한필희,19810301,20130301,경기도 고양시 덕양구 신원3로 21,23811787, ,1,1,1,0,0,12,19,25,0,0,37.6678055808861,126.885883262844
476,경기도교육청,고양교육지원청,이튼키즈유치원,사립(사인),송윤이,송윤이,20161128,20170301,경기도 고양시 덕양구 용현로 10,031-974-1707, ,1,1,2,0,0,22,17,28,0,0,37.6139643324504,126.836437635596
477,경기도교육청,고양교육지원청,한내유치원,공립(단설),박명희,박명희,20051102,20051102,경기도 고양시 일산서구 고양대로255번길 27,031-924-2712,www.hnkids.kg.kr,1,2,2,0,1,15,43,44,0,4,37.6687041879529,126.73548208979
478,경기도교육청,고양교육지원청,성저초등학교병설유치원,공립(병설),지경옥,지경옥,19970301,19970301,경기도 고양시 일산서구 성저로 92,031-919-3802,http://www.seongjeo.es.kr/,0,0,1,0,0,0,0,9,0,0,37.6847450160758,126.757364690276
479,경기도교육청,고양교육지원청,원당초등학교병설유치원,공립(병설),오치봉,오치봉,19860302,19860302,경기도 고양시 덕양구 마상로107번길 13,031-969-6667, ,0,1,1,0,0,0,4,16,0,0,37.6623588619131,126.834931026323
480,경기도교육청,고양교육지원청,토당초등학교병설유치원,공립(병설),도명순,도명순,20060301,20060301,경기도 고양시 덕양구 행신로 90,031-972-9592, ,0,0,0,1,1,0,0,0,9,3,37.6171951941048,126.826294203256
481,경기도교육청,고양교육지원청,창릉초등학교병설유치원,공립(병설),김성춘,김성춘,20190111,20190301,경기도 고양시 덕양구 덕수천2로 118,02-381-7067,http://chang-reung.es.kr/,1,1,1,0,1,13,20,22,0,4,37.6483172085013,126.89323759599
482,경기도교육청,고양교육지원청,예솔유치원,사립(사인),유연지,최양미,19951111,19960301,경기도 고양시 일산동구 호수로430번길 37,031-902-7526,http://www.yesol2.kidswon.com,2,2,2,0,0,24,51,34,0,0,37.6445451285568,126.780690597654
483,경기도교육청,고양교육지원청,상탄초등학교병설유치원,공립(병설),박오경,박오경,20130901,20130906,경기도 고양시 일산서구 현중로 47,031-914-0367, ,1,1,1,0,0,9,15,14,0,0,37.69513469684,126.766694518358
484,경기도교육청,고양교육지원청,목암초등학교병설유치원,공립(병설),장윤옥,장윤옥,20050301,20050301,경기도 고양시 덕양구 푸른마을로 63,031-962-4474, ,1,1,1,0,0,6,21,25,0,0,37.7141894768432,126.904655611291
485,경기도교육청,고양교육지원청,세화유치원,사립(사인),구명순,구명순,20100405,20100405,경기도 고양시 일산서구 대산로 183,031-911-3335, ,1,2,1,0,0,16,38,22,0,0,37.676677163723,126.75808153668
486,경기도교육청,고양교육지원청,보보유치원,사립(사인),오영숙,오영숙,20020902,20020902,경기도 고양시 일산동구 경의로 333,031-902-3644,http://www.bo-bo.org,2,0,0,2,0,25,0,0,52,0,37.6594773821493,126.791739280592
487,경기도교육청,고양교육지원청,파랑새유치원,사립(사인),주오식,조수연,19950125,19950125,경기도 고양시 일산서구 후곡로 10,031-913-6683,https://parangse.kidsnote.ac/home/main,2,2,2,0,0,17,37,43,0,0,37.6779818000816,126.763107831899
488,경기도교육청,고양교육지원청,예지슬유치원,사립(사인),김동호,박미란,20130710,20130902,경기도 고양시 일산서구 장자길 74-1,031-927-9987, ,5,5,4,0,0,96,106,99,0,0,37.6984177295626,126.745302716888
489,경기도교육청,고양교육지원청,다솜유치원,사립(사인),곽노은,이순애,19940110,19940110,경기도 고양시 일산동구 강석로 156,031-904-2297,http://www.ilsandasom.kg.kr,1,2,1,0,0,15,35,30,0,0,37.6547212250964,126.777733068942
490,경기도교육청,고양교육지원청,냉천초등학교병설유치원,공립(병설),김운예,김운예,20130301,20130301,경기도 고양시 일산동구 산두로 99,031-902-3418,http://www.ng1000.es.kr,0,1,1,0,0,0,15,22,0,0,37.6667229797167,126.785658871723
491,경기도교육청,고양교육지원청,대곡초등학교병설유치원,공립(병설),이강희,이강희,19810301,19810301,경기도 고양시 덕양구 대주로 138-50,031-968-0123, ,0,0,0,1,0,0,0,0,16,0,37.6411565458396,126.812752864566
492,경기도교육청,고양교육지원청,고양초등학교병설유치원,공립(병설),정재은,정재은,19810309,19810309,경기도 고양시 덕양구 혜음로13번길 22-7,031-962-8516,http://www.koyang.es.kr,0,1,1,0,0,0,5,14,0,0,37.7031241407784,126.899630970019
493,경기도교육청,고양교육지원청,중산초등학교병설유치원,공립(병설),정선애,정선애,20130301,20130301,경기도 고양시 일산동구 탄중로 373,031-977-4198, ,1,1,1,0,0,6,22,9,0,0,37.6904444829473,126.783557066931
494,경기도교육청,고양교육지원청,고양관산초등학교병설유치원,공립(병설),김미애,김미애,20040301,20040301,경기도 고양시 덕양구 통일로726번길 130,031-969-8453,http://www.gs.es.kr,0,1,1,0,0,0,9,11,0,0,37.6921232492666,126.866567661998
495,경기도교육청,고양교육지원청,삼송초등학교병설유치원,공립(병설),김용심,김용심,19810310,19810310,경기도 고양시 덕양구 세솔로 150,031-966-7972,http://kysses..es.kr,1,1,1,0,0,16,22,26,0,0,37.6541995043822,126.882395721338
496,경기도교육청,고양교육지원청,용두초등학교병설유치원,공립(병설),조성순,조성순,19810301,19810306,경기도 고양시 덕양구 용두로121번길 20,02-387-1055, ,0,0,0,1,0,0,0,0,5,0,37.6215748305453,126.893271206388
497,경기도교육청,고양교육지원청,이삭유치원,사립(사인),유금자,유금자,19971013,19971013,경기도 고양시 덕양구 화신로 105,031-973-9433, ,1,2,2,0,0,16,21,30,0,0,37.6226998271358,126.838446576067
498,경기도교육청,고양교육지원청,서정초등학교병설유치원,공립(병설),구경순 ,구경순 ,20080130,20100305,경기도 고양시 덕양구 소원로 251,031-979-7508,http://seojeong.es.kr,0,1,1,0,0,0,6,13,0,0,37.6143410847384,126.848839387776
499,경기도교육청,고양교육지원청,현산초등학교병설유치원,공립(병설),조성숙,조성숙,20010301,20010301,경기도 고양시 일산서구 산현로 87,031-917-1448, ,1,1,1,0,0,14,17,17,0,0,37.6926916765428,126.771093774075
500,경기도교육청,고양교육지원청,백양초등학교병설유치원,공립(병설),전명기,전명기,19970301,19970301,경기도 고양시 덕양구 화신로 238,031-979-3771,http://www.baikyang.es.kr,0,1,1,0,0,0,19,25,0,0,37.6322580328221,126.836165985309
501,경기도교육청,고양교육지원청,대화초등학교병설유치원,공립(병설),이광희,이광희,19810301,19810301,경기도 고양시 일산서구 송포로 50,031-918-3192, ,0,0,1,0,0,0,0,10,0,0,37.6715708927274,126.732395164763
502,경기도교육청,고양교육지원청,성사유치원,공립(단설),윤문숙,윤문숙,20140301,20140301,경기도 고양시 덕양구 호국로834번길 89,031-966-2762,http://www.seongsa.kg.kr/,3,3,3,0,1,28,46,61,0,4,37.6578216922442,126.843652403898
503,경기도교육청,고양교육지원청,노벨유치원,사립(사인),김경선 ,김경선 ,19930327,19930327,경기도 고양시 일산동구 강송로 197,031-904-2966,http://www.nobelkids.co.kr,1,1,2,0,0,11,15,31,0,0,37.6560162512168,126.782299630664
504,경기도교육청,고양교육지원청,아리솔유치원,사립(사인),이현우,정양순,20150301,20150302,경기도 고양시 일산동구 약산길 45,031-977-5111,http://arisolschool.kr,1,3,4,0,0,19,50,75,0,0,37.6824188828087,126.791777074492
505,경기도교육청,고양교육지원청,상명유치원,사립(사인),김복영,김복영,19930301,19930301,경기도 고양시 덕양구 능곡로45번길 65,031-974-9888,https://smkinder.kidsnote.ac/home/main,1,2,2,0,0,19,33,41,0,0,37.6257149669549,126.822869758328
506,경기도교육청,고양교육지원청,그네와시소유치원,사립(사인),고두석,이경숙,20040801,20040801,경기도 고양시 일산동구 탄중로425번길 39-16,031-975-0078, ,1,2,1,0,0,10,23,16,0,0,37.6859217874115,126.77986966415
507,경기도교육청,고양교육지원청,금계초등학교병설유치원,공립(병설),이경하,이경하,19970107,19970305,경기도 고양시 일산동구 강촌로 90,031-907-0246, ,0,0,1,1,0,0,0,12,10,0,37.6496009979059,126.784311924311
508,경기도교육청,고양교육지원청,성석초등학교병설유치원,공립(병설),안금순,안금순,19810302,19810302,경기도 고양시 일산동구 문봉길 110,031-977-2378,http://seongseok.es.kr,0,0,0,1,0,0,0,0,8,0,37.7073788345137,126.812374087658
509,경기도교육청,고양교육지원청,성실유치원,사립(사인),장윤희,장윤희,20050224,20050224,경기도 고양시 덕양구 동헌로 387,031-963-5414,http://sungsili.co.kr/,2,2,2,0,0,26,22,39,0,0,37.7071617975862,126.89511115404
510,경기도교육청,고양교육지원청,다진유치원,사립(사인),김진옥,김미자,20131111,20140301,경기도 고양시 덕양구 큰골길 13,02-381-5556,http://cafe.daum.net/dajin2015,1,2,2,0,0,20,45,37,0,0,37.6652136674615,126.894930043679
511,경기도교육청,고양교육지원청,능곡성당유치원,사립(법인),이기헌,도영숙,19870316,19870316,경기도 고양시 덕양구 토당로78번길 7-14,031-974-4525, ,1,0,0,2,0,12,0,0,37,0,37.6230282492596,126.819672473135
512,경기도교육청,고양교육지원청,해나라유치원,사립(사인),조명옥,이지연,19950125,19950302,경기도 고양시 일산서구 일산로 487,031-911-6168, ,2,2,1,0,0,32,44,26,0,0,37.6749996941008,126.772696218114
513,경기도교육청,고양교육지원청,어울림유치원,사립(사인),박경선,박혜성,19940310,19940310,경기도 고양시 덕양구 호국로742번길 38,031-964-1007,http://blog.naver.com/aullim1007,2,1,1,0,0,20,14,21,0,0,37.6524574764304,126.835085757166
514,경기도교육청,고양교육지원청,경기유치원,사립(사인),최병찬,이유임,19890131,19890301,경기도 고양시 덕양구 통일로542번길 27,031-964-9229,http://kgkid.kg.kr,2,3,2,0,0,37,40,37,0,0,37.6814514284867,126.889457829404
515,경기도교육청,고양교육지원청,한뫼초등학교병설유치원,공립(병설),이강준,이강준,20050301,20050301,경기도 고양시 일산서구 고양대로 629,031-976-7526, ,0,1,1,0,0,0,8,21,0,0,37.6865793289204,126.766704881133
516,경기도교육청,고양교육지원청,황룡초등학교병설유치원,공립(병설),신미자,신미자,20150301,20150301,경기도 고양시 일산서구 탄현로 75,031-915-0266, ,1,1,1,0,0,8,16,22,0,0,37.698447375198,126.768007060403
517,경기도교육청,고양교육지원청,강선예일유치원,사립(사인),이광득,김자호,19940207,19940207,경기도 고양시 일산서구 강선로 70,031-912-0574, ,1,1,1,0,0,13,15,28,0,0,37.6698492633527,126.765475766
518,경기도교육청,고양교육지원청,인혜유치원,사립(사인),임혜진,임혜진,19960301,19960301,경기도 고양시 일산서구 강선로 192,031-917-6701,http://inhea.co.kr/,2,3,2,0,0,31,46,40,0,0,37.679651676175,126.772072026799
519,경기도교육청,고양교육지원청,연꽃유치원,사립(사인),권선희,최유진,19890301,19890901,경기도 고양시 덕양구 마상로 175-6,031-964-4365,http://cafe.daum.net/lotuskid,1,1,1,0,0,20,25,26,0,0,37.6577218243255,126.842202010925
520,경기도교육청,고양교육지원청,바움유치원,사립(사인),황정국,김세영,20090326,20090326,경기도 고양시 덕양구 호국로742번길 57,031-966-3069,http://www.kitabaum.com,2,2,2,0,0,28,35,43,0,0,37.6527005630636,126.835991784949
521,경기도교육청,고양교육지원청,숲소리유치원,사립(사인),김선자,박경애,20120119,20120119,경기도 고양시 덕양구 일영로 146-1,02-371-0300,http://soupsori.com,2,3,2,0,0,35,47,50,0,0,37.6598295190486,126.920263501926
522,경기도교육청,고양교육지원청,솔샘유치원,사립(사인),차영자,차영자,20090313,20090313,경기도 고양시 덕양구 충장로 118-30,031-978-6057, ,1,1,2,0,0,10,18,25,0,0,37.6202746685438,126.835919527672
523,경기도교육청,고양교육지원청,도래울초등학교병설유치원,공립(병설),류재화,류재화,20141001,20141006,경기도 고양시 덕양구 도래울3로 5,031-963-6898, ,1,1,1,0,1,16,20,23,0,4,37.6317385836405,126.870579069005
524,경기도교육청,고양교육지원청,다솜초등학교병설유치원,공립(병설),이화진,이화진,20070301,20070301,경기도 고양시 일산동구 숲속마을로 139,031-932-8567,http://www.dasom.es.kr,0,1,1,0,0,0,6,18,0,0,37.6725866945208,126.79657775488
525,경기도교육청,고양교육지원청,호수유치원,사립(사인),정용채,정용채,19951201,19951201,경기도 고양시 덕양구 소원로 47,031-970-2560, ,1,1,1,2,0,14,14,10,38,0,37.6132967372122,126.830212016449
526,경기도교육청,고양교육지원청,예담유치원,사립(사인),최현자,이희숙,19950222,19950222,경기도 고양시 일산서구 강선로 142,031-913-3602, ,1,1,1,0,0,11,7,17,0,0,37.6759951559154,126.769847719549
527,경기도교육청,고양교육지원청,로뎀유치원,사립(사인),김종만,김지희,19950918,19950918,경기도 고양시 덕양구 화신로 47,031-971-5533,http://cafe.daum.net/hangsinrodem,2,2,2,0,0,39,47,44,0,0,37.61725579812,126.83831779146
528,경기도교육청,고양교육지원청,유진유치원,사립(사인),김지은,윤혜진,20021125,20030301,경기도 고양시 일산동구 산두로201번길 23,031-924-0006,http://www.yujinkid.co.kr/ ,2,2,2,0,0,40,47,33,0,0,37.6737956616793,126.781388711169
529,경기도교육청,고양교육지원청,햇빛유치원,사립(사인),구자서,이귀순,20000115,20000115,경기도 고양시 일산동구 일산로 205,031-905-0363,http://hatbit.kg.kr,2,2,2,0,0,32,43,52,0,0,37.6540818914134,126.78866676037
530,경기도교육청,고양교육지원청,흥도유치원,공립(단설),최진옥,최진옥,20150301,20150301,경기도 고양시 덕양구 도래울1로 83,031-968-6873,http://www.heungdo.kg.kr,2,3,3,0,2,26,61,71,0,8,37.6274827303821,126.87185657118
531,경기도교육청,고양교육지원청,향동유치원,공립(단설),강민주,강민주,20190901,20190901,경기도 고양시 덕양구 향동1로 37-1,231593101,http://www.hyangdong.kg.kr,5,5,5,0,1,76,109,113,0,3,37.6037446553589,126.895211229395
532,경기도교육청,고양교육지원청,고양동산초등학교병설유치원,공립(병설),황부연,황부연,20130301,20130307,경기도 고양시 덕양구 동세로 32,02-381-2250, ,0,1,1,0,1,0,20,23,0,3,37.6463862282985,126.886582990389
533,경기도교육청,고양교육지원청,햇님유치원,사립(사인),이양순,이양순,19941227,19941227,경기도 고양시 일산동구 백석로 151,031-902-9795, ,1,1,1,0,0,20,21,22,0,0,37.6507418704704,126.792989660701
534,경기도교육청,고양교육지원청,제니스유치원,사립(사인),안종태,김정희,20121214,20130301,경기도 고양시 일산서구 일현로 89,031-917-6199, ,2,1,1,2,0,37,25,22,43,0,37.6949383607115,126.76442165493
535,경기도교육청,고양교육지원청,아란유치원,사립(사인),박혜숙,김윤숙,19951202,19951202,경기도 고양시 일산서구 강선로 116,031-913-0587,http://blog.naver.com/arankiz,1,2,1,0,0,15,32,26,0,0,37.6733680926696,126.767782852843
536,경기도교육청,고양교육지원청,행주초등학교병설유치원,공립(병설),원희영,원희영,19850225,19850225,경기도 고양시 덕양구 행주로17번길 70,031-938-2308, ,0,0,0,8,0,0,0,0,8,0,37.603403402439,126.824342776359
537,경기도교육청,광명교육지원청,광은유치원,사립(사인),김한배,박윤순,19820408,19820408,경기도 광명시 범안로 1075,02-892-7697, ,2,2,2,0,0,32,36,42,0,0,37.4638521543189,126.881479272039
538,경기도교육청,광명교육지원청,하안남초등학교병설유치원,공립(병설),박인주,박인주,19900303,19900303,경기도 광명시 금당로 71,02-894-4519, ,1,1,1,0,0,5,11,7,0,0,37.4621724277797,126.885251333324
539,경기도교육청,광명교육지원청,안서초등학교병설유치원,공립(병설),김정희,김정희,19850901,19850901,경기도 광명시 가학로 247-55,02-2689-0821, ,0,0,0,1,0,0,0,0,7,0,37.4027831903971,126.870644194737
540,경기도교육청,광명교육지원청,트인아이유치원,사립(사인),박미화,박미화,20120224,20120301,경기도 광명시 기아로62번길 16,02-899-9811, ,2,2,2,0,0,17,33,30,0,0,37.4351088004666,126.886209366366
541,경기도교육청,광명교육지원청,밝은빛유치원,공립(단설),김미숙,김미숙,20110301,20110301,경기도 광명시 오리로 402,02-899-6821,http://www.balgeunbit.kg.kr,2,2,2,0,1,30,31,28,0,4,37.4386393611885,126.879592670099
542,경기도교육청,광명교육지원청,세교유치원,사립(사인),이우,정재은,20041101,20041101,경기도 광명시 광명로 205-9,02-2686-6635, ,2,1,1,0,0,35,25,27,0,0,37.4195182028658,126.847812857821
543,경기도교육청,광명교육지원청,광명광덕초등학교병설유치원,공립(병설),김선혜,김선혜,19820410,19820410,경기도 광명시 오리로841번길 9,02-2611-2816,http://www.gmgd.es.kr,1,1,1,0,0,13,20,24,0,0,37.4733130014095,126.865540884542
544,경기도교육청,광명교육지원청,충현초등학교병설유치원,공립(병설),김형식,김형식,20110301,20110301,경기도 광명시 성채안로 16,070-8854-2890,http://www.chunghyun.es.kr/wah/main/index.htm,0,1,1,0,0,0,10,19,0,0,37.4331387226547,126.886483296139
545,경기도교육청,광명교육지원청,구름산유치원,공립(단설),홍미선,홍미선,20180301,20180302,경기도 광명시 한내로13번길 17,02-819-9000,http://www.gureumsan.kg.kr,4,4,4,0,3,60,83,65,0,12,37.4556019020482,126.881791350411
546,경기도교육청,광명교육지원청,광명광성초등학교병설유치원,공립(병설),김선미,김선미,19880307,19880307,경기도 광명시 철산로 59,02-2617-0738, ,1,1,1,0,0,14,22,26,0,0,37.4788502830457,126.873071005485
547,경기도교육청,광명교육지원청,혜성유치원,사립(사인),백혜성,백혜성,19901218,19901218,경기도 광명시 안현로 59,02-893-6677, ,3,2,1,0,0,44,36,24,0,0,37.4662935362142,126.877854108227
548,경기도교육청,광명교육지원청,하일초등학교병설유치원,공립(병설),위영옥,위영옥,19970901,19970901,경기도 광명시 철망산로 68,02-896-0534,http://www. khail.es. kr,0,0,1,0,0,0,0,13,0,0,37.4690854457083,126.876417763479
549,경기도교육청,광명교육지원청,광명초등학교병설유치원,공립(병설),최경희,최경희,19820323,19820323,경기도 광명시 광이로 21,02-2610-3990, ,0,0,0,1,0,0,0,0,7,0,37.4808601457034,126.857414014467
550,경기도교육청,광명교육지원청,광일초등학교병설유치원,공립(병설),김광자,김광자,19850901,19850901,경기도 광명시 목감로 34-6,02-2615-9659,http://www.kwangil.es.kr,1,1,1,0,0,4,10,12,0,0,37.4716236827499,126.846939352762
551,경기도교육청,광명교육지원청,예지유치원,사립(사인),이철구,정인숙,19900414,19900414,경기도 광명시 시청로 139,02-2617-4412, ,2,2,2,0,0,40,50,45,0,0,37.4878996126735,126.868345823925
552,경기도교육청,광명교육지원청,도덕초등학교병설유치원,공립(병설),고신자,고신자,19860305,19860305,경기도 광명시 가마산로 28,02-2615-1627,http://www.dodeok.es.kr/wah/main/index.htm,1,1,1,0,0,8,6,4,0,0,0,0
553,경기도교육청,광명교육지원청,예원유치원,사립(사인),곽향숙,곽향숙,19900305,20031125,경기도 광명시 범안로 1023,28910101, ,2,2,2,0,0,34,48,33,0,0,37.4613531367234,126.876836159587
554,경기도교육청,광명교육지원청,경기유치원,사립(사인),이창식,이희진,19761129,19770307,경기도 광명시 광명로 877,02-2612-7033, ,2,2,2,0,0,30,32,47,0,0,37.4779125008652,126.853151063959
555,경기도교육청,광명교육지원청,아란유치원,사립(사인),윤종사,김영란,19940115,19940115,경기도 광명시 기아로5번길 3,02-898-3645, ,2,2,2,0,0,22,33,35,0,0,37.4370563511587,126.880019388629
556,경기도교육청,광명교육지원청,연서초등학교병설유치원,공립(병설),김혜숙,김혜숙,19910803,19910803,경기도 광명시 안현로 80-2,02-809-2819,http://www.yonseo.es.kr,1,1,1,0,0,14,13,23,0,0,37.4659352403504,126.882419965948
557,경기도교육청,광명교육지원청,파랑새유치원,사립(사인),손옥순,현윤희,19910304,19910304,경기도 광명시 하안로288번길 12-1,28926363, ,3,2,1,0,0,43,32,28,0,0,37.4622449549456,126.882224772656
558,경기도교육청,광명교육지원청,주원유치원,사립(사인),김현숙,김현숙,20181205,20190301,경기도 광명시 목감로 96,02-2613-6363,https://blog.naver.com/0506juwon,1,0,0,1,0,9,0,0,10,0,37.4764645349714,126.847916103249
559,경기도교육청,광명교육지원청,한솔유치원,사립(사인),기대원,한선주,19940106,19940217,경기도 광명시 기아로 9,28972266, ,0,0,1,1,0,0,0,8,7,0,37.4366322872666,126.880685940055
560,경기도교육청,광명교육지원청,예솔유치원,사립(사인),홍인숙,홍인숙,19900302,19900302,경기도 광명시 오리로619번길 10,02-899-4238, ,2,2,1,0,0,39,42,18,0,0,37.4566921576608,126.878096452025
561,경기도교육청,광명교육지원청,하안북초등학교병설유치원,공립(병설),최광호,최광호,19900301,19900301,경기도 광명시 가림로 18,02-899-6034, ,1,2,2,0,0,10,21,29,0,0,37.4647085135351,126.869134235278
562,경기도교육청,광명교육지원청,삼흥유치원,사립(사인),정마암,권예경,19880229,19880229,경기도 광명시 철산로29번길 12,02-2688-7020,http://shhappyihome.kidswon.com,1,1,1,0,0,20,26,29,0,0,37.4777776798542,126.869068826565
563,경기도교육청,광명교육지원청,녹야유치원,사립(사인),최경숙,윤은경,19750308,19750308,경기도 광명시 광이로 9-2,02-2687-3113, ,2,1,2,0,0,20,23,40,0,0,37.4794979201299,126.857795349256
564,경기도교육청,광명교육지원청,안현초등학교병설유치원,공립(병설),허기순,허기순,20100301,20100301,경기도 광명시 도덕공원로 5,02-899-7676,http://anhyun.es.kr/,0,1,1,0,0,0,15,14,0,0,37.471013948808,126.867502957056
565,경기도교육청,광명교육지원청,가림유치원,사립(사인),정지현,배현수,19900704,19900910,경기도 광명시 가림로 40,02-898-5550,http://cafe.daum.net/garim5,1,1,1,0,0,13,13,10,0,0,37.4641776996693,126.866451244001
566,경기도교육청,광명교육지원청,한마음유치원,사립(사인),박근영,박근영,19910307,19910307,경기도 광명시 하안로 361,02-806-4500, ,2,2,2,0,0,39,34,37,0,0,37.4667551462931,126.8757152159
567,경기도교육청,광명교육지원청,소하초등학교병설유치원,공립(병설),채열희,채열희,20040301,20040301,경기도 광명시 소하일로 45,02-808-7254,http://www.soha.es.kr,1,1,1,0,0,7,19,21,0,0,37.4492756597596,126.887367542618
568,경기도교육청,광명교육지원청,광문초등학교병설유치원,공립(병설),서경희,서경희,19920301,19920301,경기도 광명시 덕단이로 29,070-71147591,http://www.kmoon.or.kr,0,1,1,0,0,0,9,14,0,0,37.4668878773514,126.851667734358
569,경기도교육청,광명교육지원청,은총유치원,사립(사인),손현주,박선향,20130322,20130415,경기도 광명시 가림일로 80,02-2689-7020,http://www.eunchong.kr,3,2,1,0,0,45,44,24,0,0,37.469127981739,126.865929448778
570,경기도교육청,광명교육지원청,철산초등학교병설유치원,공립(병설),송민영,송민영,19850902,19850902,경기도 광명시 하안로 392,02-2617-7011, ,1,1,1,0,0,16,21,25,0,0,37.4697943306431,126.874593422341
571,경기도교육청,광명교육지원청,하안초등학교병설유치원,공립(병설),최기옥,최기옥,19900301,19900301,경기도 광명시 안현로 16,02-809-8935,http://www.haan.es.kr,1,1,2,0,1,11,20,25,0,3,37.4630604347509,126.873988974311
572,경기도교육청,광명교육지원청,해누리유치원,공립(단설),황영숙,황영숙,20140301,20140301,경기도 광명시 소하일로 10,02-3289-2200,http://haenuri.kg.kr,3,3,3,0,2,37,52,65,0,7,37.4459636083875,126.888682950771
573,경기도교육청,광명교육지원청,산들유치원,사립(사인),장금자,장금자,20050301,20050301,경기도 광명시 밤일안로42번길 37,02-898-8777,http://www.san-deul.net,1,1,1,0,0,20,24,22,0,0,37.4564352537369,126.860020502551
574,경기도교육청,광명교육지원청,가림초등학교병설유치원,공립(병설),허재형,허재형 ,19910302,19910302,경기도 광명시 금당로 11-7,02-808-4091, ,1,1,1,0,0,7,12,18,0,0,37.4585500717097,126.878911639464
575,경기도교육청,광명교육지원청,온신초등학교병설유치원,공립(병설),유필자,유필자,19850901,19850901,경기도 광명시 범안로 657,02-2616-5637,http://www.onshin.es.kr,0,0,0,1,0,0,0,0,8,0,37.442760647263,126.84685227784
576,경기도교육청,광명교육지원청,광명남초등학교병설유치원,공립(병설),한은희,한은희,19810301,19810301,경기도 광명시 광명로 866-9,02-2619-6741,http://www.gmnam.es.kr/wah/main/bbs/board/list.htm?menuCode=85,0,1,1,0,0,0,7,10,0,0,37.4751270849887,126.853702442327
577,경기도교육청,광명교육지원청,광명북초등학교병설유치원,공립(병설),정복동,정복동,19860310,19860310,경기도 광명시 시청로138번길 8,02-2616-1018, ,0,1,1,0,0,0,20,20,0,0,37.4864964890954,126.867633802073
578,경기도교육청,광명교육지원청,광명서초등학교병설유치원,공립(병설),서준희,서준희,19850901,19850901,경기도 광명시 너부대로 5,02-2687-7736,http://www.gmseo.es.kr,1,1,1,0,0,5,9,15,0,0,37.4784721689625,126.847013683251
579,경기도교육청,광명교육지원청,빛가온유치원,공립(단설),이영희,이영희,20190111,20190307,경기도 광명시 새빛공원로 54,02-899-8228,http://www.bitgaon.kg.kr/wah/main/index.htm,2,3,2,0,1,30,55,47,0,4,37.4175967912264,126.889411554063
580,경기도교육청,광명교육지원청,광명동초등학교병설유치원,공립(병설),장동환,장동환,19850301,19850301,경기도 광명시 연서일로 25,02-2614-5093,http://www.kmd.es.kr/wah/main/index.htm,0,1,1,0,2,0,3,8,0,8,37.4839518149849,126.863396305817
581,경기도교육청,광주하남교육지원청,좋은친구들유치원,사립(사인),이재철,김례사,20190109,20190301,경기도 광주시 경충대로1461번길 33,031-763-3020, ,3,2,1,0,0,58,44,28,0,0,37.3991852641748,127.270421768389
582,경기도교육청,광주하남교육지원청,서부초등학교병설유치원,공립(병설),신미자,신미자,19830312,19830312,경기도 하남시 서하남로 161,02-485-0095,http://hsb.es.kr,0,0,0,1,0,0,0,0,12,0,37.5157426332626,127.162038469786
583,경기도교육청,광주하남교육지원청,양실유치원,사립(법인),김영옥,권은자,20050131,20050131,경기도 광주시 대석동길61번길 47-17,031-762-6200, ,2,3,2,0,0,40,69,52,0,0,37.3527422840374,127.348121747595
584,경기도교육청,광주하남교육지원청,태전초등학교병설유치원,공립(병설),정순태,정순태,20001002,20001002,경기도 광주시 태봉로 56,031-764-4095, ,0,0,1,0,0,0,0,13,0,0,37.3888993172926,127.227118435349
585,경기도교육청,광주하남교육지원청,미사강변초등학교병설유치원,공립(병설),김기옥,김기옥,20140901,20140901,경기도 하남시 미사강변북로55번길 70,031-8026-0690,http://www.msgb.es.kr,1,1,1,0,0,14,20,23,0,0,37.5758242461865,127.186004135786
586,경기도교육청,광주하남교육지원청,태성초등학교병설유치원,공립(병설),국영란,국영란,20171023,20171023,경기도 광주시 태성로 37,031-5182-6400,http://www.taesung2017.es.kr,1,1,1,0,1,14,14,25,0,3,37.3849654293061,127.228862193388
587,경기도교육청,광주하남교육지원청,삼리초등학교병설유치원,공립(병설),이신영,이신영,20020301,20020301,경기도 광주시 평촌길 30-28,031-764-8341,http://www.samri.es.kr,1,1,1,0,1,7,10,14,0,4,37.3578214151163,127.324326231331
588,경기도교육청,광주하남교육지원청,산곡초등학교병설유치원,공립(병설),김미경,김미경,19810228,19810228,경기도 하남시 하남대로302번길 45,031-793-9019, ,0,0,0,1,0,0,0,0,13,0,37.5040935971565,127.234532122166
589,경기도교육청,광주하남교육지원청,감일초등학교병설유치원,공립(병설),김재경,김재경,20190901,20190904,경기도 하남시 감일백제로 45,25808683, ,2,2,2,0,1,30,30,35,0,1,37.5002341618375,127.162060930451
590,경기도교육청,광주하남교육지원청,역동초등학교병설유치원,공립(병설),강옥기,강옥기,20161101,20161107,경기도 광주시 순암로36번길 45,031-767-4692,http://yeokdong.es.kr,1,1,1,0,1,7,15,19,0,4,37.3983595279202,127.247311333699
591,경기도교육청,광주하남교육지원청,광주초등학교병설유치원,공립(병설),윤지영,윤지영,19810301,19810301,경기도 광주시 중앙로123번길 22,031-799-1998, ,0,1,1,0,0,0,11,16,0,0,37.4106297103217,127.255228797885
592,경기도교육청,광주하남교육지원청,태전한솔유치원,사립(사인),조희수,김정아,20030301,20030301,경기도 광주시 태봉로42번길 34,031-797-9001,http://WWW.hansol.kg.kr,4,4,4,0,0,64,86,96,0,0,37.3911874862879,127.226635240692
593,경기도교육청,광주하남교육지원청,분원초등학교병설유치원,공립(병설),김숙현,김숙현,19820301,19820301,경기도 광주시 산수로 1642-1,031-768-8004, ,0,0,0,1,0,0,0,0,17,0,37.4962574186605,127.303448835049
594,경기도교육청,광주하남교육지원청,번천초등학교병설유치원,공립(병설),김정숙,김정숙,19860310,19860310,경기도 광주시 해공로 82,031-762-8578, ,0,0,0,1,0,0,0,0,9,0,37.4451531392483,127.266950232338
595,경기도교육청,광주하남교육지원청,하남초등학교병설유치원,공립(병설),최창희,최창희,19950309,19950309,경기도 하남시 천현로 109,031-793-8035,http://www.hanami.es.kr,1,1,1,0,0,12,13,20,0,0,37.5374261633415,127.222166330644
596,경기도교육청,광주하남교육지원청,미담유치원,공립(단설),김유정,김유정,20170327,20170403,경기도 하남시 미사강변북로85번길 16,031-796-7836,http://www.midam.kg.kr,3,3,3,0,1,46,62,66,0,4,37.5729785001808,127.188138230744
597,경기도교육청,광주하남교육지원청,한아람초등학교병설유치원,공립(병설),정선이,정선이,20190901,20190909,경기도 광주시 벼루개길42번길 20,312203870, ,1,1,1,0,1,14,20,19,0,4,0,0
598,경기도교육청,광주하남교육지원청,창우초등학교병설유치원,공립(병설),윤금현,윤금현,19950306,19950306,경기도 하남시 대청로 99,031-796-0031,http://www.changwoo.es.kr,1,1,1,0,0,10,16,10,0,0,37.5406582876617,127.22375550537
599,경기도교육청,광주하남교육지원청,신평초등학교병설유치원,공립(병설),김순이,김순이,20050901,20060301,경기도 하남시 신장동로 67,031-792-7316, ,0,0,1,1,0,0,0,15,12,0,37.5442446136551,127.21512855779
600,경기도교육청,광주하남교육지원청,경안초등학교병설유치원,공립(병설),박광실,박광실,20040301,20040301,경기도 광주시 경안로 163,031-762-9367,http://www.ka.es.kr,0,0,0,1,0,0,0,0,9,0,37.4115169617424,127.247764726829
601,경기도교육청,광주하남교육지원청,곤지암초등학교병설유치원,공립(병설),이병례,이병례,19780823,19780823,경기도 광주시 곤지암로 70-13,031-769-2512,https://gonjiam.es.kr,1,1,1,0,2,4,7,17,0,7,37.3496698344333,127.338135193581
602,경기도교육청,광주하남교육지원청,금강유치원,사립(사인),이금자,이금자,20041220,20041220,경기도 하남시 대청로59번길 33,031-796-6900, ,4,4,4,0,0,80,101,95,0,0,37.5420420261351,127.218907984896
